id,year,month,day,locationName,latitude,longitude,eqMagnitude,damageAmountOrder,housesDestroyedAmountOrder,tsunamiEventId,volcanoEventId,eqMagMs,publish,deathsTotal,deathsAmountOrderTotal,damageAmountOrderTotal,housesDestroyedTotal,housesDestroyedAmountOrderTotal,country,regionCode,hour,minute,second,eqDepth,deaths,deathsAmountOrder,injuriesAmountOrder,eqMagMw,eqMagMb,injuriesAmountOrderTotal,intensity,housesDamagedAmountOrder,housesDamagedAmountOrderTotal,housesDestroyed,injuries,housesDamaged,injuriesTotal,housesDamagedTotal,eqMagMl,damageMillionsDollars,damageMillionsDollarsTotal,area,missingAmountOrderTotal,eqMagUnk,missing,missingAmountOrder,missingTotal,eqMagMfa
942,1640,7.0,31.0,JAPAN:  UCHIURA BAY,42.07,140.68,6.5,1.0,1.0,253.0,2676.0,6.5,True,700.0,3.0,1.0,20.0,1.0,JAPAN,30,,,,,,,,,,,,,,,,,,,,,,,,,,,,
5568,2000,7.0,1.0,JAPAN:  NEAR S COAST HONSHU:  KOZU-SHIMA,34.221,139.131,6.1,1.0,,2340.0,5104.0,6.1,True,1.0,1.0,1.0,,,JAPAN,30,7.0,1.0,55.5,10.0,1.0,1.0,3.0,6.1,6.0,3.0,,,,,,,,,,,,,,,,,,
10545,2021,5.0,25.0,RWANDA: RUBAVU; CONGO,-1.601,29.4,4.7,2.0,1.0,,7536.0,,True,32.0,1.0,3.0,5000.0,4.0,RWANDA,10,9.0,3.0,0.0,10.0,,,,,4.7,,7.0,1.0,1.0,,,,,,,,,,,,,,,
8051,1959,8.0,10.0,CHINA:  SHAANXI PROVINCE,35.6,110.9,5.4,1.0,1.0,,,5.4,True,,,1.0,43.0,1.0,CHINA,30,23.0,7.0,29.0,,,,,,,,7.0,,,43.0,,,,,,,,,,,,,,
5520,1999,4.0,3.0,"PERU:  CAMANA, AREQUIPA",-16.66,-72.662,6.8,2.0,,,,6.2,True,1.0,1.0,2.0,,,PERU,160,6.0,17.0,18.3,87.0,1.0,1.0,1.0,6.8,6.1,1.0,6.0,2.0,3.0,,50.0,300.0,50.0,300.0,,,,,,,,,,
9552,2010,9.0,27.0,IRAN:  SHIRAZ,29.647,51.665,5.8,1.0,1.0,,,5.6,True,1.0,1.0,1.0,,1.0,IRAN,140,11.0,22.0,46.0,27.0,1.0,1.0,1.0,5.8,5.9,1.0,,,,,3.0,,3.0,,6.0,,,,,,,,,
2866,1909,5.0,11.0,CHINA:  YUNNAN PROVINCE,24.4,103.0,6.5,2.0,3.0,,,6.5,True,21.0,1.0,2.0,,3.0,CHINA,30,15.0,54.0,24.0,,21.0,1.0,,,,,8.0,,,,,,,,,,,,,,,,,
5433,1996,2.0,17.0,"INDONESIA:  NEW GUINEA:  IRIAN JAYA:  BIAK, SUPIORI",-0.891,136.952,8.2,2.0,4.0,2260.0,,8.1,True,164.0,3.0,2.0,5043.0,4.0,INDONESIA,170,5.0,59.0,30.5,33.0,54.0,2.0,3.0,8.2,6.5,3.0,9.0,,,5043.0,423.0,,423.0,,,4.2,4.2,,,,,,,
8130,2008,5.0,7.0,JAPAN:  HONSHU:  E COAST,36.158,141.521,6.8,1.0,,,,6.7,True,,,1.0,,,JAPAN,30,16.0,45.0,20.2,39.0,,,1.0,6.8,6.1,1.0,,,,,6.0,,6.0,,,,,,,,,,,
2419,1892,5.0,16.0,GUAM,14.0,143.3,7.5,2.0,1.0,1195.0,,7.5,True,,,2.0,,1.0,USA TERRITORY,170,11.0,10.0,,,,,,,,,8.0,,,,,,,,,,,GU,,,,,,
7746,2008,1.0,5.0,"GUATEMALA:  COLOMBA, FLORES, COSTA CUCA",14.129,-91.479,5.6,1.0,,,,,True,,,1.0,,,GUATEMALA,100,1.0,56.0,45.4,66.0,,,,5.6,5.4,,,,1.0,,,,,,,,,,,,,,,
5803,2004,9.0,28.0,"CALIFORNIA:  CENTRAL: PARKFIELD, SAN MIGUEL",35.819,-120.364,6.0,1.0,,,,5.8,True,,,1.0,,,USA,150,17.0,15.0,24.2,9.0,,,,6.0,5.4,,6.0,,,,,,,,,,,CA,,,,,,
1577,1806,3.0,25.0,"MEXICO:  JALISCO,OAXACA,MICHOACAN",20.34,-105.0,7.5,4.0,3.0,,,7.5,True,2000.0,4.0,4.0,,3.0,MEXICO,150,,,,,2000.0,4.0,,,,,8.0,,,,,,,,,,,,,,,,,
5483,1998,1.0,10.0,"GUATEMALA:  QUEZALTENANGO, SAN MARCOS, SOLOLA",14.374,-91.473,6.6,1.0,2.0,,,6.2,True,,,1.0,,2.0,GUATEMALA,100,8.0,20.0,5.7,33.0,,,1.0,6.6,6.1,1.0,,2.0,1.0,,27.0,,27.0,,,,,,,,,,,
10116,2014,10.0,7.0,CHINA:   YUNNAN PROVINCE:  YONGPING,23.383,100.47,6.1,4.0,1.0,,,,True,1.0,1.0,4.0,,1.0,CHINA,30,13.0,49.0,39.7,9.0,1.0,1.0,3.0,6.1,,3.0,4.0,,,,323.0,,323.0,,,274.0,274.0,,,,,,,
8095,1748,3.0,6.0,CHINA:  SICHUAN PROVINCE,30.1,101.9,5.5,1.0,1.0,,,5.5,True,15.0,1.0,1.0,14.0,,CHINA,30,,,,,15.0,1.0,,,,1.0,7.0,,,14.0,,,34.0,,,,,,,,,,,
5167,1988,8.0,20.0,"NEPAL-INDIA:  KATHMANDU, BIHAR",26.755,86.616,6.6,4.0,,5735.0,,6.6,True,998.0,3.0,4.0,,,NEPAL,60,23.0,9.0,9.5,57.0,998.0,3.0,,,6.4,,8.0,,,,,,,,,131.5,131.5,,1.0,,,,,
8011,1937,12.0,8.0,TAIWAN:  TAIDONG,22.9,121.2,7.0,1.0,1.0,,,7.0,True,,,1.0,5.0,1.0,TAIWAN,30,8.0,32.0,11.0,,,,1.0,,,1.0,,,,5.0,1.0,,1.0,,,,,,,,,,,
6144,1861,6.0,17.0,INDONESIA:  SW. SUMATRA,1.0,97.5,6.8,,,913.0,,6.8,True,,,,,,INDONESIA,60,,,,,,,,,,,,,,,,,,,,,,,,,,,,
5939,1257,10.0,9.0,JAPAN:  SAGAMI BAY,35.2,139.5,7.0,1.0,,106.0,,7.0,True,,,1.0,,,JAPAN,30,,,,,,,,,,,,,,,,,,,,,,,,,,,,
2467,1895,4.0,14.0,BALKANS NW:  SLOVENIA:  LJUBLJANA,46.1,14.5,6.1,3.0,3.0,,,6.1,True,7.0,1.0,3.0,,3.0,SLOVENIA,130,20.0,17.0,30.0,16.0,7.0,1.0,,,,,9.0,,,,,,,,,,,,,,,,,
3357,1928,4.0,9.0,PERU,-13.0,-69.5,6.9,3.0,3.0,1596.0,,6.9,True,10.0,1.0,3.0,,3.0,PERU,160,17.0,34.0,15.0,30.0,,,,,,,9.0,,,,,,,,,,,,,,,,,
3019,1914,10.0,23.0,"MICRONESIA, FED. STATES OF:  CAROLINE ISLANDS",6.0,132.5,7.6,,,,,7.6,True,,,,,,PALAU,170,6.0,18.0,34.0,60.0,,,,7.6,,,,,,,,,,,,,,,,,,,,
3278,1925,10.0,14.0,CHINA:  YUNNAN PROVINCE,27.0,100.0,5.8,2.0,3.0,,,5.8,True,12.0,1.0,2.0,500.0,3.0,CHINA,30,17.0,5.0,18.0,,12.0,1.0,3.0,,,3.0,7.0,,,500.0,,,,,,,,,,,,,,
6774,2005,8.0,30.0,"INDIA: MAHARASHTRA: AMBEGHAR, DICHOLI, KISRULE",17.067,73.773,4.7,1.0,,,,,True,,,1.0,,,INDIA,60,8.0,53.0,17.4,10.0,,,,,4.7,,6.0,,,,,,,,,,,,,,,,,
124,510,,,SOUTH KOREA:  KYONGJU,35.5,129.1,6.3,2.0,2.0,,,,True,,3.0,2.0,,2.0,SOUTH KOREA,30,,,0.0,,,3.0,,,,,8.0,,,,,,,,,,,,,6.3,,,,
2606,1902,1.0,1.0,ALASKA:  ALEUTIAN ISLANDS:  FOX ISLANDS,52.4,-167.5,7.8,,,,,,True,,,,,,USA,150,5.0,20.0,0.0,,,,,,,,,,,,,,,,,,,AK,,7.8,,,,
7615,2007,8.0,20.0,INDIA:  MAHARASHTRA:  SATARA,17.2,73.7,4.4,1.0,,,,,True,,,1.0,,,INDIA,60,19.0,15.0,53.5,5.0,,,,,4.4,,,,,,,,,,4.0,,,,,,,,,
8003,1930,12.0,22.0,TAIWAN:  TAINAN,23.2,120.6,5.5,2.0,3.0,,,5.5,True,,,2.0,121.0,3.0,TAIWAN,30,4.0,19.0,50.0,,,,,,,,,,,121.0,,,,,,,,,,,,,,
5652,2002,9.0,22.0,"UNITED KINGDOM:  MANSFIELD, DUDLEY",52.52,-2.15,4.8,1.0,,,,,True,,,1.0,,,UK,120,23.0,53.0,14.6,9.0,,,1.0,,4.8,1.0,6.0,,,,1.0,,1.0,,5.0,,,,,,,,,
10035,2013,4.0,17.0,JAPAN: MIYAKEJIMA,33.958,139.352,5.8,1.0,,,,5.5,True,,,1.0,,,JAPAN,30,8.0,57.0,33.9,9.0,,,1.0,5.8,5.6,1.0,,2.0,2.0,,3.0,,3.0,,,,,,,,,,,
6455,1978,6.0,14.0,"MINDANAO ISLAND, PHILIPPINES",8.249,122.403,6.9,,,2106.0,,6.9,True,,,,,,PHILIPPINES,170,12.0,32.0,33.9,24.0,,,,,6.1,,,,,,,,,,,,,,,,,,,
5777,2004,5.0,3.0,CHILE: CANETE,-37.695,-73.406,6.6,1.0,,,,6.5,True,,,1.0,,,CHILE,160,4.0,36.0,50.0,21.0,,,,6.6,5.9,,6.0,,,,,,,,6.4,,,,,,,,,
10231,2016,11.0,29.0,POLAND:  RUDNA,51.613,16.157,4.2,1.0,,,,,True,8.0,1.0,1.0,,,POLAND,120,20.0,9.0,35.0,5.0,8.0,1.0,1.0,4.2,,1.0,,,,,9.0,,9.0,,,,,,,,,,,
3905,1949,7.0,10.0,TAJIKISTAN,39.2,70.8,7.4,4.0,4.0,,,7.4,True,3500.0,4.0,4.0,,4.0,TAJIKISTAN,40,3.0,53.0,38.0,16.0,3500.0,4.0,,,,,10.0,,,,,,,,,,,,,,,,,
5842,2005,1.0,25.0,CHINA:  YUNNAN PROVINCE:  SIMAO,22.526,100.709,4.8,1.0,,,,,True,,,1.0,,,CHINA,30,16.0,30.0,38.9,12.0,,,1.0,,4.8,1.0,,,,,3.0,,3.0,,,,,,,,,,,
4267,1962,6.0,11.0,BALKANS NW:  BOSNIA-HERZEGOVINA,43.6,18.3,6.3,4.0,,,,,True,,,,,,BOSNIA-HERZEGOVINA,130,7.0,15.0,0.0,,,,,,,,,,,,,,,,,40.0,,,,6.3,,,,
3957,1950,11.0,17.0,MEXICO:  GUERRERO,16.5,-100.4,6.8,2.0,,,,,True,,,,,,MEXICO,150,19.0,28.0,0.0,,,,,,,,11.0,,,,,,,,,,,,,6.8,,,,
5457,1997,4.0,11.0,"CHINA:  S. XINJIANG, BACHU, SHULE, YINGJISHA",39.527,76.941,6.2,4.0,4.0,,,6.1,True,9.0,1.0,4.0,2000.0,4.0,CHINA,40,5.0,34.0,42.7,15.0,9.0,1.0,2.0,6.2,5.8,2.0,,,,2000.0,89.0,,89.0,,,,,,,,,,,
6206,1882,10.0,10.0,INDONESIA:  BANDANEIRA,-4.5,129.9,7.5,,,1135.0,,7.5,True,,,,,,INDONESIA,170,,,,,,,,,,,,,,,,,,,,,,,,,,,,
10643,2022,9.0,10.0,"PAPUA NEW GUINEA: MOROBE, EASTERN HIGHLANDS",-6.256,146.469,7.6,3.0,4.0,,,,True,21.0,1.0,3.0,1076.0,4.0,PAPUA NEW GUINEA,170,23.0,46.0,57.0,90.0,21.0,1.0,1.0,7.6,,1.0,8.0,,,1076.0,30.0,,30.0,,,,,,,,,,,
3229,1923,9.0,2.0,JAPAN:  NEAR S COAST HONSHU,34.9,140.2,7.7,,,1527.0,,7.7,True,,,,,,JAPAN,30,2.0,46.0,40.0,20.0,,,,,,,,,,,,,,,,,,,,,,,,
5475,1997,10.0,15.0,"CHILE:  PUEBLO NUEVO, COQUIMBO, LA CHIMBA",-30.933,-71.22,7.1,4.0,4.0,,,6.8,True,8.0,1.0,4.0,5000.0,4.0,CHILE,160,1.0,3.0,33.4,58.0,8.0,1.0,3.0,7.1,6.8,3.0,,4.0,4.0,5000.0,300.0,15700.0,300.0,15700.0,,48.0,48.0,,,,,,,
4260,1962,4.0,1.0,IRAN:  MUSSAVIEH,33.32,58.845,5.8,2.0,,,,5.5,True,20.0,1.0,2.0,,,IRAN,140,0.0,45.0,13.4,15.0,20.0,1.0,,5.8,,,7.0,,,,,,,,,,,,,,,,,
7244,2006,5.0,12.0,INDONESIA:  SUMATRA:  KALIANDAK,-5.575,105.395,5.5,1.0,2.0,,,4.9,True,,,1.0,,2.0,INDONESIA,60,8.0,16.0,56.5,17.0,,,,5.5,5.4,,,2.0,,,,,,,,,,,,,,,,
5001,1983,10.0,30.0,"JAPAN:  TOTTORI, YONANGO",35.464,133.899,5.2,2.0,,,,5.2,True,,,,,,JAPAN,30,16.0,51.0,57.0,27.0,,,,,5.2,,6.0,,,,,,,,,,,,,,,,,
10598,2022,1.0,14.0,"INDONESIA: PANDEGLANG, BANTEN",-6.929,105.251,6.6,3.0,3.0,,,,True,,,3.0,395.0,3.0,INDONESIA,60,9.0,5.0,42.0,37.0,,,4.0,6.6,,4.0,8.0,4.0,4.0,395.0,1975.0,2683.0,1975.0,2683.0,,,,,,,,,,
1933,1852,9.0,16.0,"PHILIPPINES:  LUZON:  BATAAN, RIZAL, PAMPANGA,MANILA",14.0,120.5,7.5,3.0,3.0,790.0,,7.5,True,3.0,1.0,3.0,,3.0,PHILIPPINES,170,10.0,45.0,,,3.0,1.0,1.0,,,1.0,9.0,,,,1.0,,1.0,,,,,,,,,,,
2644,1903,2.0,1.0,MONGOLIA,48.0,98.0,7.8,,,,,,True,,,,,,MONGOLIA,40,9.0,34.0,0.0,60.0,,,,,,,,,,,,,,,,,,,,7.8,,,,
10575,2021,9.0,15.0,CHINA: SICHUAN PROVINCE: LUXIAN (LU),29.182,105.391,5.4,4.0,3.0,,,,True,3.0,1.0,4.0,809.0,3.0,CHINA,30,20.0,33.0,32.0,10.0,3.0,1.0,2.0,5.4,,2.0,7.0,4.0,4.0,809.0,88.0,7290.0,88.0,7290.0,,250.0,250.0,,,,,,,
8378,2009,8.0,10.0,INDIA:  ANDAMAN I,14.099,92.888,7.5,,,4419.0,,7.6,True,,,,,,INDIA,60,19.0,55.0,35.6,5.0,,,,7.5,6.9,,,,,,,,,,,,,,,,,,,
3059,1916,8.0,25.0,BOLIVIA-NORTHERN CHILE,-21.0,-68.0,7.5,,,,,7.5,True,,,,,,BOLIVIA,160,9.0,44.0,42.0,180.0,,,,,7.0,,,,,,,,,,,,,,,,,,,
10348,2018,7.0,21.0,INDONESIA: SUMATRA: SOLOK,-0.969,100.769,5.2,2.0,1.0,,,,True,1.0,1.0,1.0,2.0,1.0,INDONESIA,60,7.0,58.0,0.0,10.0,1.0,1.0,1.0,5.2,,2.0,,3.0,3.0,2.0,2.0,,2.0,,,,,,,,,,,
3866,1947,11.0,1.0,"PERU:  SATIPO,ANDAMARCA,ACOBAMBA,LA MERCED,VICTOC",-10.5,-75.0,7.3,3.0,,,,,True,,,,,,PERU,160,14.0,58.0,0.0,100.0,233.0,3.0,,,,,10.0,,,,,,,,,,,,,7.3,,,,
6538,1897,6.0,20.0,MEXICO:  TEHUANTEPEC,16.0,-95.0,7.0,2.0,2.0,1240.0,,7.0,True,,,2.0,,2.0,MEXICO,150,,,,,,,,,,,,,,,,,,,,,,,,,,,,
6466,1984,3.0,24.0,RUSSIA:  KURIL ISLANDS,44.117,148.192,7.0,,,2153.0,,7.0,True,,,,,,RUSSIA,50,9.0,44.0,2.6,44.0,,,,,6.1,,,,,,,,,,,,,,,,,,,
5485,1998,2.0,4.0,AFGHANISTAN:  ROSTAQ; TAJIKISTAN:  DUSHANBE,37.075,70.089,5.9,4.0,4.0,,,6.1,True,2323.0,4.0,4.0,8094.0,4.0,AFGHANISTAN,40,14.0,33.0,21.2,33.0,2323.0,4.0,3.0,5.9,5.6,3.0,,,,8094.0,818.0,,818.0,,,,,,,,,,,
10027,1911,9.0,22.0,ALASKA:  PRINCE WILLIAM SOUND,60.5,-149.0,6.9,,,1399.0,,6.9,True,,,1.0,,,USA,150,5.0,1.0,24.0,60.0,,,,,,,8.0,,,,,,,,,,,AK,,,,,,
5110,1986,10.0,5.0,"SOUTH AFRICA:  MOUNT FRERE, DURBAN",-30.546,28.737,4.8,1.0,,,,4.8,True,,,1.0,,,SOUTH AFRICA,10,18.0,53.0,20.9,5.0,,,,,4.9,,4.0,,,,,,,,,,,,,,,,,
8021,1947,6.0,7.0,CHINA:  SICHUAN PROVINCE,26.7,102.9,5.5,1.0,2.0,,,5.5,True,3.0,1.0,1.0,,2.0,CHINA,30,5.0,5.0,0.0,,3.0,1.0,,,,,7.0,,,,,,,,,,,,,,,,,
3962,1950,12.0,10.0,"PERU:  ICA,CHIMBOTE,HUARAZ,CAJAMARCA,CUZCO,MOQUEGUA",-14.25,-75.75,7.0,2.0,2.0,1812.0,,7.0,True,4.0,1.0,2.0,,2.0,PERU,160,2.0,50.0,42.0,80.0,4.0,1.0,1.0,,,1.0,,,,,12.0,,12.0,,,,,,,,,,,
5325,1992,5.0,20.0,"PAKISTAN:  PESHAWAR, KOHAT, SHAKKAR KHEL",33.377,71.317,6.0,2.0,3.0,,,6.0,True,6.0,1.0,2.0,400.0,3.0,PAKISTAN,60,12.0,20.0,32.8,16.0,36.0,1.0,2.0,,6.0,2.0,,,,400.0,100.0,,100.0,,,,,,,,,,,
5276,1991,2.0,25.0,CHINA:  S XINJIANG:  KALPIN,40.386,78.959,6.1,2.0,4.0,,,6.1,True,,,2.0,8561.0,4.0,CHINA,40,14.0,30.0,27.6,21.0,,,1.0,,5.5,1.0,,,,8561.0,3.0,,3.0,,,,,,,,,,,
5785,2004,6.0,9.0,SAUDI ARABIA: WESTERN,27.836,36.905,4.6,1.0,,,,,True,,,1.0,,,SAUDI ARABIA,140,11.0,41.0,16.5,10.0,,,,,,,,,,,,,,,4.6,,,,,,,,,
5668,2002,12.0,24.0,IRAN:  KERMANSHAH,34.594,47.454,5.2,3.0,4.0,,,4.4,True,,,3.0,3000.0,4.0,IRAN,140,17.0,3.0,2.9,33.0,,,1.0,5.2,5.1,1.0,,4.0,,3000.0,15.0,3000.0,15.0,,,,,,,,,,,
1566,1804,7.0,10.0,JAPAN:  KISAKATA,39.05,139.95,7.3,4.0,4.0,593.0,,7.3,True,450.0,3.0,4.0,10810.0,4.0,JAPAN,30,13.0,,,,450.0,3.0,,,,,,,3.0,10810.0,,,,300.0,,,,,,,,,,
3624,1938,8.0,10.0,"ECUADOR:  ALANGASI,SANGOLQUI,TINGO-PICHINCHA",-0.3,-78.4,7.0,4.0,,,,,True,,,4.0,,,ECUADOR,160,2.0,2.0,0.0,10.0,,,,,,,10.0,,,,,,,,,,,,,7.0,,,,
5733,2003,11.0,13.0,"CHINA:  GANSU PROVINCE:  JONE, LINTAN, MINXIAN",34.712,103.834,5.1,1.0,1.0,,,5.1,True,1.0,1.0,1.0,10.0,1.0,CHINA,30,2.0,35.0,10.3,10.0,1.0,1.0,1.0,5.1,5.1,1.0,,,,10.0,30.0,,30.0,,,,,,,,,,,
1101,1687,10.0,20.0,PERU:  LIMA,-13.5,-76.5,8.5,3.0,,337.0,,8.5,True,5000.0,4.0,3.0,,,PERU,160,10.0,30.0,,30.0,5000.0,4.0,,,,,10.0,,,,,,,,,,,,,,,,,
5926,1788,7.0,21.0,ALASKA PENINSULA: UNGA ISLAND,57.0,-153.0,8.0,,,549.0,,8.0,True,,3.0,1.0,,1.0,USA,150,,,,,,,,,,,7.0,,,,,,,,,,,AK,,,,,,
5541,1999,11.0,1.0,CHINA:  SHANXI:  NORTHEASTERN,39.899,113.983,5.3,4.0,4.0,,,5.3,True,,,4.0,6000.0,4.0,CHINA,30,13.0,25.0,16.5,10.0,,,1.0,5.3,5.1,1.0,,,,6000.0,4.0,,4.0,,5.5,44.0,44.0,,,,,,,
3281,1925,12.0,14.0,IRAN:  BAJESTAN,34.6,58.1,5.5,,,,,,True,,,,,,IRAN,140,,,0.0,,500.0,3.0,,,,,,,,,,,,,,,,,,5.5,,,,
5755,2004,1.0,10.0,"ALGERIA:  NORTHERN:  ALGIERS, BOUMERDES",36.852,3.418,4.4,1.0,,,,4.4,True,,,1.0,,,ALGERIA,15,18.0,38.0,14.8,10.0,,,3.0,,4.5,3.0,,,,,300.0,,300.0,,4.6,,,,,,,,,
2237,1875,7.0,25.0,UKRAINE:  CRIMEA:  SEBASTOPOL,44.5,33.4,5.2,2.0,,,,5.2,True,,,2.0,,,UKRAINE,110,4.0,28.0,,9.0,,,3.0,,,3.0,9.0,3.0,3.0,,,,,,,,,,,,,,,
6568,1881,10.0,25.0,JAPAN:  HOKKAIDO ISLAND,43.3,147.3,7.0,,,1125.0,,7.0,True,,,,,,JAPAN,30,,,,,,,,,,,,,,,,,,,,,,,,,,,,
7407,2006,6.0,3.0,MALAWI:  SALIMA,-14.52,34.28,3.8,1.0,,,,,True,,,1.0,,,MALAWI,10,16.0,34.0,25.8,10.0,,,,,3.8,,,,,,,,,,,,,,,,,,,
270,894,,,ITALY:  VERONA,45.3,11.0,5.3,2.0,,,,,True,,,,,,ITALY,130,,,0.0,,,2.0,,,,,,,,,,,,,,,,,,5.3,,,,
10419,2009,7.0,1.0,GREECE:  CRETE,34.164,25.471,6.4,,,5713.0,,6.3,True,,,,,,GREECE,130,9.0,30.0,10.4,19.0,,,,6.4,6.1,,2.0,,,,,,,,,,,,,,,,,
4167,1958,7.0,10.0,ALASKA:  LITUYA BAY,58.37,-136.665,7.8,1.0,1.0,1880.0,,7.9,True,5.0,1.0,1.0,,1.0,USA,150,6.0,15.0,59.9,35.0,,,,7.8,,,11.0,,,,,,,,,,0.1,AK,,,,,,
10250,2017,5.0,29.0,INDONESIA:  SULAWESI:  POSO,-1.292,120.431,6.6,2.0,1.0,,,6.4,True,,,2.0,5.0,1.0,INDONESIA,170,14.0,35.0,51.0,12.0,,,1.0,6.6,6.2,1.0,7.0,3.0,3.0,5.0,25.0,348.0,25.0,348.0,,,,,,,,,,
4692,1975,7.0,8.0,MYANMAR (BURMA):  PAGAN,21.49,94.7,6.5,1.0,,,,,True,1.0,1.0,1.0,,,MYANMAR (BURMA),60,12.0,4.0,42.4,157.0,1.0,1.0,1.0,,6.5,1.0,,,,,1.0,,1.0,,,0.5,0.5,,,6.8,,,,
5221,1989,12.0,27.0,AUSTRALIA:  NEWCASTLE,-32.967,151.619,5.4,4.0,,,,,True,12.0,1.0,4.0,,,AUSTRALIA,170,23.0,26.0,57.0,10.0,12.0,1.0,2.0,,5.4,2.0,8.0,,,,100.0,,100.0,,,1000.0,1000.0,,,,,,,
6314,1915,11.0,18.0,PHILIPPINES:  W. LUZON ISLAND,18.0,119.5,6.4,1.0,,1431.0,,6.4,True,,,1.0,,,PHILIPPINES,170,20.0,19.0,18.0,,,,,,,,8.0,1.0,1.0,,,,,,,,,,,,,,,
4920,1981,5.0,25.0,NEW ZEALAND:  W OF NORTH ISLAND,-48.786,164.357,7.6,,,2130.0,,7.6,True,,,,,,NEW ZEALAND,170,5.0,25.0,14.4,33.0,,,,,6.1,,,,,,,,,,,,,,,,,,,
5456,1997,4.0,6.0,CHINA:  S. XINJIANG,39.537,76.998,6.0,3.0,,,,5.8,True,,,3.0,,,CHINA,40,4.0,36.0,35.2,33.0,,,,6.0,5.6,,,,,,,,,,,,,,,,,,,
1271,1737,12.0,17.0,RUSSIA:  KURIL ISLANDS,50.0,157.0,7.5,,,414.0,,,True,,,,,,RUSSIA,50,,,0.0,50.0,,,,,,,9.0,,,,,,,,,,,,,7.5,,,,
4827,1979,2.0,16.0,PERU:  AREQUIPA,-16.39,-72.658,6.9,2.0,,,,6.9,True,18.0,1.0,2.0,,,PERU,160,10.0,8.0,53.4,53.0,18.0,1.0,2.0,,6.2,2.0,,,,,,,,,,,,,,,,,,
9989,346,,,ALBANIA:  DURRES (DYRRACHIUM),41.4,19.4,6.8,2.0,3.0,3474.0,,6.8,True,,,2.0,,3.0,ALBANIA,130,,,,,,,,,,,9.0,,,,,,,,,,,,,,,,,
4591,1972,1.0,25.0,TAIWAN,23.0,122.2,7.7,1.0,,,,7.7,True,,,1.0,,,TAIWAN,30,3.0,41.0,23.7,33.0,,,,,5.9,,,,,,,,,,,,,,,,,,,
1931,1852,7.0,24.0,TURKEY,39.9,41.3,7.3,1.0,,,,,True,,,,,,TURKEY,140,,,0.0,,17.0,1.0,,,,,,,,,,,,,,,,,,7.3,,,,
2411,1891,10.0,27.0,JAPAN:  MINO-OWARI,35.5,137.0,8.4,4.0,4.0,,,8.4,True,7273.0,4.0,4.0,142177.0,4.0,JAPAN,30,21.0,37.0,,,7273.0,4.0,,,,,,,,142177.0,,,,,,,,,,,,,,
6138,1860,4.0,8.0,HAITI: ANSE-A-VEAU,18.52,-73.35,7.5,2.0,3.0,897.0,,7.5,True,,,2.0,,3.0,HAITI,90,11.0,,,,,,1.0,,,1.0,8.0,3.0,3.0,,,,,,,,,,,,,,,
7876,2008,3.0,29.0,PERU:  OFF COAST,-12.178,-77.164,5.3,1.0,1.0,,,,True,,,1.0,5.0,1.0,PERU,160,12.0,51.0,24.7,51.0,,,1.0,5.3,5.4,1.0,,,,5.0,1.0,,1.0,,,,,,,,,,,
5716,2003,8.0,16.0,"CHINA:  NEI MONGOL:  LINDONG, TIANSHAN",43.77,119.643,5.4,3.0,3.0,,,5.1,True,4.0,1.0,3.0,7900.0,4.0,CHINA,30,10.0,58.0,42.7,24.0,4.0,1.0,3.0,5.4,5.5,3.0,,,,7900.0,1000.0,,1000.0,,,,,,,,,,,
8852,1968,1.0,25.0,ITALY:  SICILY,37.8,13.2,5.1,1.0,,,,5.1,True,8.0,1.0,1.0,,,ITALY,130,9.0,56.0,48.7,33.0,8.0,1.0,2.0,,,2.0,,,,,55.0,,55.0,,,,,,,,,,,
5195,1989,5.0,3.0,"IRAN:  SW, SHIRAZ, MAMASANI",29.964,51.655,5.1,3.0,,,,,True,,,,,,IRAN,140,9.0,13.0,24.2,33.0,,,,,5.1,,,,,,,,,,,,,,,,,,,
3060,1916,8.0,28.0,NEPAL; TIBET (XIZANG PROVINCE),30.0,81.0,7.7,,,,,7.7,True,,,,,,NEPAL,60,6.0,39.0,29.0,33.0,,,,,,,,,,,,,,,,,,,,,,,,
3301,1926,12.0,17.0,ALBANIA:  DURRES,41.0,19.5,5.8,3.0,3.0,,,5.8,True,,,3.0,,3.0,ALBANIA,130,6.0,31.0,5.0,,,,,,,,10.0,,,,,,,,,,,,,,,,,
5950,1510,9.0,21.0,"SEIONAIKAI, JAPAN",34.6,135.4,6.7,1.0,,154.0,,6.7,True,,,1.0,,,JAPAN,30,,,,,,,,,,,,,,,,,,,,,,,,,,,,
2429,1893,6.0,14.0,"ALBANIA: HIMARA, DHERMI, KUC, KUDHESI, VLORE, KANINA",40.2,19.7,7.5,3.0,,1205.0,,7.5,True,,,3.0,,,ALBANIA,130,,,,,,,,,,,11.0,,,,,,,,,,,,,,,,,
3712,1942,8.0,27.0,"ALBANIA:  PESHKOPIA, MAGELLARE",41.7,20.4,6.0,3.0,3.0,,,6.0,True,43.0,1.0,3.0,,3.0,ALBANIA,130,6.0,14.0,11.0,33.0,43.0,1.0,3.0,,,3.0,10.0,,,,110.0,,110.0,,,,,,,,,,,
10503,2020,6.0,7.0,PERU:  COAST:  CHIMBOTE,-9.634,-78.591,4.5,,,,,,True,1.0,1.0,,,,PERU,160,5.0,27.0,22.0,57.0,1.0,1.0,,,4.5,,,,,,,,,,,,,,,,,,,
7896,46,10.0,23.0,CHINA:  HENAN PROVINCE:  NANYANG,33.0,112.5,6.5,2.0,2.0,,,6.5,True,,2.0,2.0,,2.0,CHINA,30,,,,,,2.0,,,,,8.0,,,,,,,,,,,,,,,,,
4933,1981,11.0,14.0,EGYPT:  ASWAN,23.686,32.604,5.3,1.0,1.0,,,5.3,True,,,1.0,11.0,1.0,EGYPT,15,9.0,5.0,29.0,10.0,,,,,5.1,,8.0,1.0,,11.0,,11.0,,,,,,,,,,,,
10504,2020,6.0,14.0,TURKEY:  BINGOL,39.421,40.697,5.9,2.0,,,,,True,1.0,1.0,2.0,,,TURKEY,140,14.0,24.0,29.0,10.0,1.0,1.0,1.0,5.9,,1.0,,1.0,1.0,,35.0,,35.0,,,,,,,,,,,
2378,1887,12.0,16.0,CHINA:  YUNNAN PROVINCE,23.7,102.5,6.8,3.0,3.0,,,6.8,True,2000.0,4.0,3.0,,3.0,CHINA,30,,,,,2000.0,4.0,4.0,,,4.0,9.0,,,,3000.0,,3000.0,,,,,,,,,,,
6136,1859,9.0,25.0,"INDONESIA:  NEIRA I, LONTHOR I",-5.5,130.5,6.8,,,887.0,,6.8,True,,,,,,INDONESIA,170,,,,,,,,,,,,,,,,,,,,,,,,,,,,
5592,2001,2.0,13.0,EL SALVADOR: SAN JUAN TEPEZONTES-SAN VICENTE-COJUTEP,13.671,-88.938,6.6,4.0,4.0,,,6.5,True,315.0,3.0,4.0,41302.0,4.0,EL SALVADOR,100,14.0,22.0,5.8,10.0,315.0,3.0,4.0,6.6,5.5,4.0,6.0,4.0,4.0,41302.0,3399.0,15706.0,3399.0,15706.0,,348.5,348.5,,,,,,,
5833,2004,12.0,6.0,JAPAN:  HOKKAIDO:  KUSHIRO,42.9,145.228,6.8,,,,,6.5,True,,,,,,JAPAN,30,14.0,15.0,11.8,35.0,,,1.0,6.8,6.5,1.0,,,,,4.0,,4.0,,,,,,,,,,,
8317,2009,4.0,9.0,INDIA:  JAISALMER,27.143,70.749,5.2,2.0,,,,,True,,,2.0,,,INDIA,60,1.0,46.0,58.2,44.0,,,1.0,,5.2,1.0,,,2.0,,6.0,,6.0,,,,,,,,,,,
3274,1925,8.0,7.0,TURKEY:  DINAR,38.0,30.5,5.9,3.0,4.0,,,5.9,True,3.0,1.0,3.0,2043.0,4.0,TURKEY,140,6.0,46.0,37.0,,3.0,1.0,,,,,8.0,,,2043.0,,,,,,,,,,,,,,
5105,1986,7.0,21.0,CALIFORNIA-NEVADA:  CHALFANT VALLEY,37.537,-118.447,6.2,2.0,,,,6.2,True,,,2.0,,,USA,150,14.0,42.0,26.6,9.0,,,,,6.0,,6.0,,,,,,,,,1.0,1.0,CA,,,,,,
2932,1911,6.0,7.0,MEXICO:  MICHOACAN,17.5,-102.5,7.9,,,,,7.9,True,45.0,1.0,,,,MEXICO,150,11.0,2.0,42.0,11.0,45.0,1.0,1.0,,,1.0,,,,,22.0,,22.0,,,,,,,,,,,
4737,1976,7.0,28.0,CHINA:  NE:  TANGSHAN,39.664,118.401,7.4,2.0,3.0,,,7.4,True,,2.0,2.0,,3.0,CHINA,30,10.0,45.0,35.2,26.0,,2.0,,,6.3,,9.0,,,,,,,,,,,,,,,,,
3267,1925,5.0,23.0,JAPAN:  HONSHU:  TAJIMA,35.75,134.75,6.8,4.0,4.0,,,6.8,True,395.0,3.0,4.0,3333.0,4.0,JAPAN,30,2.0,9.0,45.0,,395.0,3.0,,,,,,,,3333.0,,,,,,,,,,,,,,
1076,1677,11.0,4.0,JAPAN:  OFF SE. BOSO PENINSULA,35.0,141.5,7.4,,,322.0,,7.4,True,500.0,3.0,3.0,1001.0,4.0,JAPAN,30,,,,,,,,,,,,,,,,,,,,,,,,,,,,
9766,2010,6.0,22.0,INDIA:  TAULI,29.872,80.428,5.2,1.0,1.0,,,,True,,,1.0,,1.0,INDIA,60,23.0,14.0,10.8,16.0,,,,,5.2,,,1.0,,,,,,,5.2,,,,,,,,,
5700,2003,2.0,15.0,PHILIPPINES: LUZON:  DIMASALANG,12.171,123.921,5.8,1.0,,,,5.6,True,,,1.0,,,PHILIPPINES,170,5.0,47.0,58.9,10.0,,,,5.8,5.4,,6.0,,,,,,,,,,,,,,,,,
7416,2006,11.0,17.0,FRANCE:  PYRENEES,42.99,-0.05,4.7,1.0,,,,,True,,,1.0,,,FRANCE,120,18.0,19.0,51.6,10.0,,,,,4.7,,,,,,,,,,5.4,,,,,,,,,
4550,1970,10.0,31.0,PAPUA NEW GUINEA:  MADANG,-4.907,145.471,7.3,2.0,3.0,2028.0,,7.3,True,18.0,1.0,2.0,800.0,3.0,PAPUA NEW GUINEA,170,17.0,53.0,7.1,8.0,15.0,1.0,1.0,,7.1,1.0,8.0,3.0,,800.0,20.0,800.0,20.0,,,1.75,1.75,,,,,,,
5706,2003,7.0,15.0,INDIAN OCEAN:  FELT IN MALDIVES,-2.598,68.382,7.6,,,,,7.6,True,,,,,,INDIAN OCEAN,60,20.0,27.0,50.5,10.0,,,,7.6,6.1,,,,,,,,,,,,,,,,,,,
5636,2002,5.0,18.0,TANZANIA:  BUNDA,-2.907,33.733,5.5,2.0,3.0,,,5.5,True,2.0,1.0,2.0,690.0,3.0,TANZANIA,10,15.0,15.0,8.8,10.0,2.0,1.0,,5.5,5.2,,,3.0,3.0,690.0,,700.0,,700.0,,,,,,,,,,
2091,1865,6.0,,"IRAN:  SHIRAZ, DARVESH-ASUH",29.6,53.1,6.0,3.0,3.0,,,6.0,True,,,3.0,,3.0,IRAN,140,,,,,,,,,,,7.0,,,,,,,,,,,,,,,,,
8254,2008,12.0,9.0,CHINA:  SICHUAN PROVINCE,32.518,105.395,4.5,,,,,4.5,True,2.0,1.0,,,,CHINA,30,18.0,53.0,11.1,25.0,2.0,1.0,1.0,,5.5,1.0,,,,,3.0,,3.0,,,,,,,,,,,
2554,1899,9.0,10.0,ALASKA:  CAPE YAKATAGA,60.0,-140.0,7.8,,,,,7.8,True,,,,,,USA,150,17.0,4.0,,25.0,,,,,,,7.0,,,,,,,,,,,AK,,,,,,
5417,1995,8.0,16.0,"PAPUA NEW GUINEA:  RABAUL, KOKOPO, NEW BRITAIN",-5.799,154.178,7.7,1.0,,2250.0,,7.8,True,,,1.0,,,PAPUA NEW GUINEA,170,10.0,27.0,28.6,30.0,,,,7.7,6.5,,,,,,,,,,,,,,,,,,,
4861,1979,12.0,7.0,IRAN,34.033,59.817,6.0,3.0,,,,6.0,True,,,3.0,,,IRAN,140,9.0,24.0,0.2,33.0,,,,,5.8,,,,,,,,,,,,,,,,,,,
3102,1917,12.0,29.0,MEXICO:  NEAR OAXACA COAST,15.0,-97.0,7.7,,,,,7.7,True,,,,,,MEXICO,150,22.0,50.0,20.0,33.0,,,,,,,,,,,,,,,,,,,,,,,,
2909,1910,6.0,16.0,VANUATU ISLANDS,-19.0,169.5,7.9,,,,,8.1,True,,,,,,VANUATU,170,6.0,30.0,42.0,100.0,,,,7.9,7.9,,,,,,,,,,,,,,,,,,,
1174,1707,9.0,17.0,PERU:  CUZCO,-13.0,-72.0,5.8,,,,,,True,,,,,,PERU,160,16.0,48.0,,10.0,160.0,3.0,,,,,10.0,,,,,,,,,,,,,5.8,,,,
5415,1995,7.0,21.0,"CHINA:  GANSU, YONGDENG, BAIYIN, DINGXI, JINGTAI",36.427,103.123,5.6,3.0,4.0,,,5.4,True,14.0,1.0,3.0,4500.0,4.0,CHINA,30,22.0,44.0,4.5,13.0,14.0,1.0,1.0,5.6,5.7,1.0,,,,4500.0,60.0,,60.0,,,,,,,,,,,
6182,1875,3.0,28.0,NEW CALEDONIA:  LOYALTY ISLANDS:  LIFOU ISLAND,-20.0,168.5,8.0,2.0,3.0,1062.0,,8.0,True,25.0,1.0,3.0,,3.0,NEW CALEDONIA,170,,,,,,,,,,,,,,,,,,,,,,,,,,,,
795,1590,,,"PERU:  CUSCO, CAMANA",-17.2,-72.9,7.7,1.0,1.0,198.0,,7.7,True,,1.0,2.0,,2.0,PERU,160,,,,40.0,,1.0,,,,,7.0,,,,,,,,,,,,,,,,,
8126,2008,6.0,6.0,INDIA:  MANPUR,24.702,84.964,3.8,1.0,,,,,True,,,1.0,,,INDIA,60,21.0,16.0,33.8,11.0,,,1.0,,3.8,1.0,,,,,2.0,,2.0,,,,,,,,,,,
5900,887,8.0,2.0,JAPAN:  HONSHU:  NIIGATA,37.5,138.1,6.5,,,76.0,,6.5,True,2000.0,4.0,,,,JAPAN,30,,,,,,,,,,,,,,,,,,,,,,,,,,,,
5917,1770,6.0,3.0,HAITI: PORT-AU-PRINCE,18.5,-73.4,7.5,3.0,,501.0,,,True,200.0,3.0,3.0,,,HAITI,90,19.0,15.0,,10.0,200.0,3.0,,7.5,,,10.0,,,,,,,,,,,,,,,,,
10566,2006,11.0,13.0,TAIWAN REGION,20.656,119.997,5.2,,,5805.0,,,True,,,,,,TAIWAN,30,8.0,2.0,44.4,14.0,,,,5.2,5.0,,,,,,,,,,,,,,,,,,,
10576,2021,9.0,21.0,AUSTRALIA: MELBOURNE,-37.491,146.363,5.9,2.0,,,,,True,,,2.0,,,AUSTRALIA,170,23.0,15.0,53.0,10.0,,,,5.9,,,5.0,1.0,1.0,,,46.0,,46.0,,,,,,,,,,
7614,2007,8.0,17.0,UTAH,39.464,-111.207,1.6,,,,,,True,3.0,1.0,,,,USA,150,0.0,38.0,56.0,0.0,3.0,1.0,1.0,,,1.0,,,,,6.0,,6.0,,1.6,,,UT,,,,,,
7977,1953,3.0,17.0,RUSSIA:  KURIL ISLANDS,50.0,156.5,5.8,,,1835.0,,5.8,True,,,,,,RUSSIA,50,13.0,4.0,,,,,,,,,,,,,,,,,,,,,,,,,,
2928,1911,5.0,4.0,RUSSIA:  NEAR KAMCHATKA,51.8,156.0,7.6,,,,,7.6,True,,,,,,RUSSIA,50,23.0,36.0,48.0,240.0,,,,,,,7.0,,,,,,,,,,,,,,,,,
4223,1960,5.0,21.0,CHILE:  CENTRAL,-37.872,-73.243,8.2,1.0,,1901.0,,7.3,True,,1.0,1.0,,,CHILE,160,10.0,2.0,50.0,35.0,,1.0,3.0,8.2,,3.0,,,,,,,,,,,,,,,,,,
556,1361,8.0,3.0,JAPAN:  NANKAIDO,33.0,135.0,8.4,,,124.0,,8.4,True,660.0,3.0,4.0,1700.0,4.0,JAPAN,30,,,,,,,,,,,,,,,,,,,,,,,,,,,,
4291,1963,5.0,9.0,NICARAGUA:  LEON,12.2,-86.9,5.5,1.0,,,,5.5,True,,,1.0,,,NICARAGUA,100,15.0,3.0,43.8,50.0,,,,,,,,,,,,,,,,,,,,,,,,
7441,2006,12.0,12.0,THAILAND:  MAE RIM,18.901,98.916,4.6,1.0,1.0,,,,True,,,1.0,5.0,1.0,THAILAND,60,17.0,2.0,29.7,10.0,,,,,4.6,,,,,5.0,,,,,,,,,,,,,,
5933,1797,2.0,10.0,SW. SUMATRA,0.001,99.0,8.0,1.0,,576.0,,8.0,True,300.0,3.0,2.0,,3.0,INDONESIA,60,,,,,,,,,,,9.0,,,,,,,,,,,,,,,,,
1650,1820,5.0,4.0,"MEXICO:  GUERRERO, OAXACA, PUEBLA, VERACRUZ",17.2,-99.6,7.6,3.0,,633.0,,7.6,True,,,3.0,,,MEXICO,150,,,,,,,,,,,,,,,,,,,,,,,,,,,,
905,1626,6.0,28.0,CHINA:  SHANXI PROVINCE,39.4,114.2,7.0,4.0,4.0,,,7.0,True,5200.0,4.0,4.0,,4.0,CHINA,30,,,,,5200.0,4.0,,,,,9.0,,,,,,,,,,,,,,,,,
707,1536,3.0,19.0,CHINA:  SICHUAN:  N OF XICHANG,28.1,102.1,7.3,3.0,3.0,,,7.3,True,,3.0,3.0,,3.0,CHINA,30,,,,,3.0,3.0,,,,,10.0,,,,,,,,,,,,,,,,,
2520,1897,9.0,21.0,"PHILIPPINES:  MINDANAO, ZAMBOANGA, SULU, ISABELA",6.0,122.0,8.7,3.0,3.0,1244.0,,8.7,True,13.0,1.0,3.0,,3.0,PHILIPPINES,170,5.0,12.0,,33.0,,,,,,1.0,9.0,,,,,,14.0,,,,,,,,,,,
10174,2016,2.0,5.0,TAIWAN:  TAINAN,22.97,120.46,6.4,4.0,1.0,,,,True,117.0,3.0,4.0,,1.0,TAIWAN,30,19.0,57.0,6.0,10.0,117.0,3.0,3.0,6.4,,3.0,7.0,1.0,1.0,,525.0,,525.0,,,700.0,700.0,,,,,,,
6497,1996,2.0,25.0,MEXICO:  OFF COAST OF GUERRERO,15.978,-98.07,7.1,,,2262.0,,6.9,True,,,,,,MEXICO,150,3.0,8.0,15.8,21.0,,,,7.1,6.1,,,,,,,,,,,,,,,,,,,
6143,1861,4.0,26.0,INDONESIA:  SW. SUMATRA,1.0,97.5,7.0,,,909.0,,7.0,True,,,,,,INDONESIA,60,,,,70.0,,,,,,,,,,,,,,,,,,,,,,,,
5849,2005,3.0,2.0,PAKISTAN:  QUETTA,30.378,68.038,4.9,1.0,,,,,True,,,1.0,,,PAKISTAN,60,11.0,12.0,14.9,52.0,,,1.0,,4.9,1.0,,,,,1.0,,1.0,,,,,,,,,,,
6031,1498,7.0,9.0,JAPAN:  ENSHUNADA SEA,34.4,137.7,6.4,1.0,,144.0,,6.4,True,,,1.0,,,JAPAN,30,,,,,,,,,,,,,,,,,,,,,,,,,,,,
3492,1932,6.0,3.0,MEXICO:  NEAR COAST OF JALISCO,19.623,-103.919,8.1,3.0,3.0,1649.0,,8.2,True,400.0,3.0,3.0,,3.0,MEXICO,150,10.0,36.0,58.9,35.0,400.0,3.0,3.0,8.1,,3.0,10.0,,,,120.0,,120.0,,,,,,,,,,,
9933,2012,5.0,19.0,BRAZIL:  MONTES CLAROS,-16.764,-43.999,4.1,1.0,,,,,True,,,1.0,,,BRAZIL,160,13.0,41.0,21.2,10.0,,,,,4.1,,,1.0,1.0,,,6.0,,6.0,,,,,,,,,,
7596,2007,7.0,20.0,CALIFORNIA:  MONTCLAIR,37.804,-122.193,4.2,1.0,,,,,True,,,1.0,,,USA,150,11.0,42.0,22.3,5.0,,,,4.2,,,,,,,,,,,,,,CA,,,,,,
3290,1926,6.0,28.0,INDONESIA:  SUMATERA,-0.7,100.6,5.8,2.0,,1567.0,,5.8,True,,3.0,2.0,,,INDONESIA,60,3.0,23.0,25.0,,,3.0,3.0,,,3.0,9.0,,,,,,,,,,,,,,,,,
8252,1992,2.0,1.0,JAPAN:  HONSHU:  TOKYO,35.106,139.644,5.6,1.0,,,,,True,,,1.0,,,JAPAN,30,19.0,4.0,4.5,100.0,,,1.0,,5.6,1.0,,,,,37.0,,37.0,,,,,,,,,,,
5728,2003,10.0,1.0,"RUSSIA:  KOSH-AGACH, BARNAUL, GORNO-ALTAYSK",50.211,87.721,6.7,1.0,,,,7.1,True,,,1.0,,,RUSSIA,40,1.0,3.0,25.2,10.0,,,,6.7,6.3,,,1.0,1.0,,,,,,,,,,,,,,,
10510,2020,7.0,17.0,"PAPUA NEW GUINEA:  MOROBE, ORO",-7.843,147.766,7.0,1.0,,,,,True,1.0,1.0,1.0,,,PAPUA NEW GUINEA,170,2.0,50.0,23.0,80.0,1.0,1.0,1.0,7.0,,1.0,,1.0,1.0,,1.0,12.0,1.0,12.0,,,,,,,,,,
4779,1977,8.0,19.0,INDONESIA:  SUNDA ISLANDS,-11.164,118.378,8.3,1.0,,2092.0,,8.0,True,189.0,3.0,2.0,,,INDONESIA,60,6.0,8.0,55.0,25.0,,,,8.3,7.0,2.0,,,,,,,75.0,,,,1.2,,,,,,,
10518,1935,11.0,1.0,VIETNAM: DIEN BIEN PHU,21.185,103.77,6.8,2.0,,,,,True,,1.0,2.0,,,VIETNAM,30,16.0,22.0,9.0,15.0,,1.0,,6.8,,,9.0,3.0,3.0,,,,,,,,,,,,,,,
5291,1991,6.0,15.0,"GEORGIA:  DZHAVA, TSKHINVALI, OSSETIA",42.461,44.009,6.1,3.0,,,,6.1,True,8.0,1.0,,,,GEORGIA,40,0.0,59.0,20.3,9.0,8.0,1.0,3.0,,6.1,3.0,8.0,,,,200.0,,200.0,,,,,,,,,,,
3401,1929,7.0,23.0,ICELAND,63.9,-21.7,6.3,,,,,,True,,,,,,ICELAND,120,18.0,42.0,0.0,33.0,,,,,,,10.0,,,,,,,,,,,,,6.3,,,,
5575,2000,8.0,21.0,CHINA:  YUNNAN PROVINCE:  WUDING,25.826,102.194,4.2,4.0,,,,4.2,True,1.0,1.0,4.0,,,CHINA,30,13.0,25.0,44.5,33.0,1.0,1.0,3.0,,4.9,3.0,,,,,406.0,,406.0,,,43.0,43.0,,,,,,,
3055,1916,4.0,24.0,DOMINICAN REPUBLIC:  SANTO DOMINIGO,18.5,-68.0,7.2,1.0,,,,7.2,True,,,1.0,,,DOMINICAN REPUBLIC,90,4.0,26.0,42.0,80.0,,,,,,,9.0,,,,,,,,,,,,,,,,,
8014,1940,1.0,19.0,CHINA:  NEI MONGOL,42.7,121.3,6.0,2.0,3.0,,,6.0,True,,2.0,2.0,,3.0,CHINA,30,5.0,23.0,48.0,,,2.0,,,,,,,,,,,,,,,,,,,,,,
7370,2006,9.0,10.0,GULF OF MEXICO,26.319,-86.606,5.8,,,,,5.5,True,,,,,,MEXICO,90,14.0,56.0,8.1,14.0,,,,5.8,5.9,,,,,,,,,,,,,,,,,,,
5508,1998,11.0,13.0,IRAN:  SOUTHERN:  BIGHERD-KHONJ,27.791,53.608,5.4,2.0,,,,5.1,True,5.0,1.0,,,2.0,IRAN,140,13.0,1.0,10.5,33.0,5.0,1.0,3.0,5.4,5.3,3.0,,3.0,3.0,,105.0,850.0,105.0,850.0,,,,,,,,,,
1345,1757,2.0,22.0,"ECUADOR:  COTOPAXI,TUNGURAHUA, LATACUNGA",-0.9,-78.6,7.0,3.0,,,,,True,,,,,,ECUADOR,160,,,,,1000.0,3.0,,,,,9.0,,,,,,,,,,,,,7.0,,,,
298,978,6.0,17.0,IRAN:  TAHERI (SIRAF),27.7,52.3,5.3,3.0,3.0,,,5.3,True,2000.0,4.0,3.0,,3.0,IRAN,140,,,,,2000.0,4.0,,,,,7.0,,,,,,,,,,,,,,,,,
4304,1963,10.0,13.0,RUSSIA:  KURIL ISLANDS,44.77,149.798,8.5,1.0,,1947.0,,8.1,True,,,1.0,,,RUSSIA,50,5.0,17.0,53.4,13.0,,,,8.5,7.7,,9.0,,,,,,,,,,,,,,,,,
2215,1874,5.0,4.0,"TURKEY:  KEBAN,MADEN",38.8,38.8,6.1,2.0,,,,,True,,,,,,TURKEY,140,,,0.0,,,,,,,,,,,,,,,,,,,,,6.1,,,,
2790,1906,12.0,3.0,MARTINIQUE,15.0,-61.0,7.9,,,,,7.9,True,,,,,,MARTINIQUE,90,22.0,59.0,0.0,100.0,,,,,,,,,,,,,,,,,,,,,,,,
8069,1963,4.0,23.0,CHINA:   YUNNAN PROVINCE,25.8,99.5,6.0,2.0,2.0,,,6.0,True,,,2.0,,2.0,CHINA,30,9.0,55.0,7.0,,,,,,,,7.0,,,,,,,,,,,,,,,,,
7990,1890,,,CHINA:  SHANXI PROVINCE,36.9,112.9,5.5,2.0,3.0,,,5.5,True,,,2.0,,3.0,CHINA,30,,,,,,,,,,,7.0,,,,,,,,,,,,,,,,,
8513,2009,8.0,30.0,MYANMAR (BURMA);  INDIA:  SIBSAGAR,25.28,95.101,5.2,1.0,,,,,True,,,1.0,,,MYANMAR (BURMA),60,19.0,27.0,48.8,82.0,,,,,5.2,,,,,,,,,,,,,,,,,,,
9926,2012,7.0,25.0,SOLOMON ISLANDS: GUADALCANAL,-9.694,159.727,6.4,1.0,1.0,,,6.5,True,,,1.0,26.0,1.0,SOLOMON ISLANDS,170,11.0,20.0,27.0,20.0,,,,6.4,6.4,,,,,26.0,,,,,,,,,,,,,,
4989,1983,9.0,10.0,BALKANS NW:  SERBIA,43.246,20.859,5.1,2.0,,,,,True,,,,,,SERBIA,130,6.0,14.0,22.4,10.0,,,,,5.1,,8.0,,,,,,,,,,,,,,,,,
7769,2008,2.0,15.0,LEBANON-SYRIA:  BAALBEC,33.327,35.305,5.0,1.0,,,,,True,,,1.0,,,LEBANON,140,10.0,36.0,19.0,10.0,,,1.0,,5.0,1.0,,1.0,1.0,,10.0,,10.0,,5.3,,,,,,,,,
5904,1088,6.0,10.0,JAPAN:  SANRIKU,40.5,143.0,7.0,,,93.0,,7.0,True,,,,,,JAPAN,30,,,,,,,,,,,,,,,,,,,,,,,,,,,,
4096,1956,5.0,23.0,FIJI ISLANDS,-15.0,-179.0,7.5,,,,,,True,,,,,,FIJI,170,20.0,48.0,0.0,430.0,,,,,,,,,,,,,,,,,,,,7.5,,,,
4954,1982,12.0,13.0,YEMEN:  DHAMAR,14.701,44.379,6.0,4.0,4.0,,,6.0,True,2800.0,4.0,4.0,,4.0,YEMEN,60,9.0,12.0,48.0,5.0,2800.0,4.0,4.0,,6.0,4.0,8.0,,,,1500.0,,1500.0,,,2000.0,2000.0,,,,,,,
6799,1978,3.0,22.0,RUSSIA:  KURIL ISLANDS,44.14,149.029,6.6,,,2569.0,,6.6,True,,,,,,RUSSIA,50,21.0,34.0,33.4,33.0,,,,,6.0,,5.0,,,,,,,,,,,,,,,,,
5771,2004,4.0,5.0,"AFGHANISTAN:  HINDU KUSH:  KABUL, SAMANGAN; PAKISTAN",36.512,71.029,6.5,,,,,,True,3.0,1.0,,,,AFGHANISTAN,40,21.0,24.0,4.0,187.0,3.0,1.0,1.0,6.5,6.4,1.0,,,,,5.0,,5.0,,,,,,,,,,,
9857,2011,6.0,8.0,CHINA:  XINJIANG PROVINCE:  DABANCHENG,43.015,88.247,5.3,1.0,,,,,True,,,1.0,,,CHINA,40,1.0,53.0,26.0,21.0,,,1.0,,5.3,1.0,,1.0,1.0,,8.0,50.0,8.0,50.0,,,,,,,,,,
8079,1966,2.0,5.0,CHINA:  YUNNAN PROVINCE,26.1,103.1,6.5,2.0,3.0,,,6.5,True,,,2.0,,3.0,CHINA,30,15.0,12.0,27.0,,,,,,,,9.0,,,,,,,,,,,,,,,,,
7521,2007,7.0,16.0,JAPAN:  HONSHU:  W COAST,37.57,138.478,6.6,4.0,,3104.0,,,True,9.0,1.0,4.0,,,JAPAN,30,1.0,13.0,22.0,10.0,9.0,1.0,4.0,6.6,,4.0,,3.0,3.0,,1088.0,875.0,1088.0,875.0,,12500.0,12500.0,,,,,,,
3860,1947,8.0,6.0,ALGERIA,37.0,8.0,5.3,2.0,,,,5.3,True,3.0,1.0,2.0,,,ALGERIA,15,9.0,36.0,40.0,,3.0,1.0,3.0,,,3.0,9.0,,,,,,,,,,,,,,,,,
10429,2019,7.0,9.0,"PHILIPPINES:  MINDANAO:  MAKILALA, TULUNAN",6.802,125.169,5.6,1.0,,,,,True,1.0,1.0,1.0,,,PHILIPPINES,170,12.0,37.0,1.0,24.0,1.0,1.0,1.0,5.6,,1.0,,3.0,3.0,,3.0,119.0,3.0,119.0,,,,,,,,,,
10654,2022,11.0,21.0,INDONESIA: W JAVA: CIANJUR,-6.853,107.095,5.6,4.0,4.0,,,,True,635.0,3.0,4.0,13633.0,4.0,INDONESIA,60,6.0,21.0,10.0,10.0,635.0,3.0,,5.6,,,8.0,4.0,4.0,13633.0,,42645.0,,42645.0,,,,,1.0,,5.0,1.0,5.0,
4594,1972,2.0,10.0,"IRAN:  DEH KOHNEH,SA'DABAD,BORAZJAN",29.7,50.9,4.5,3.0,,,,,True,,,3.0,,,IRAN,140,6.0,49.0,15.9,21.0,,,,,4.5,,,,,,,,,,,,,,,4.5,,,,
7745,2008,1.0,1.0,KYRGYZSTAN:  OSH,40.288,72.985,5.6,3.0,4.0,,,5.4,True,,,3.0,5385.0,4.0,KYRGYZSTAN,40,6.0,32.0,27.9,6.0,,,,5.6,5.8,,,,,5385.0,,,,,,,,,,,,,,
10601,2022,1.0,29.0,NEW ZEALAND: KERMADEC ISLANDS,-29.531,-176.749,6.5,,,5828.0,,,True,,,,,,KERMADEC ISLANDS (NEW ZEALAND),170,2.0,46.0,39.0,10.0,,,,6.5,,,,,,,,,,,,,,,,,,,,
8573,2009,10.0,9.0,ECUADOR:  TENA,-0.962,-77.817,5.4,1.0,,,,,True,,,1.0,,,ECUADOR,160,18.0,11.0,39.9,35.0,,,,,5.4,,,,,,,,,,,,,,,,,,,
488,1290,9.0,27.0,CHINA:  NEI MONGOL:  NINGCHENG,41.5,119.3,6.8,3.0,,,,6.8,True,100000.0,4.0,3.0,,,CHINA,30,,,,,100000.0,4.0,,,,,9.0,,,,,,,,,,,,,,,,,
8109,1905,11.0,8.0,CHINA:  SICHUAN PROVINCE,29.3,104.8,5.0,1.0,1.0,,,5.0,True,13.0,1.0,1.0,3.0,1.0,CHINA,30,3.0,27.0,,,13.0,1.0,1.0,,,1.0,6.0,1.0,,3.0,,3.0,,,,,,,,,,,,
3761,1943,10.0,23.0,MYANMAR (BURMA),21.5,93.5,7.2,2.0,,,,,True,,,,,,MYANMAR (BURMA),60,,,0.0,,,,,,,,,,,,,,,,,,,,,7.2,,,,
5453,1997,3.0,19.0,"PAKISTAN:  BAJAUR, CHITRAL",34.872,71.62,4.9,1.0,,,,,True,15.0,1.0,1.0,,,PAKISTAN,60,19.0,57.0,11.9,50.0,15.0,1.0,,,4.9,,,1.0,1.0,,,,,,,,,,,,,,,
6763,2005,7.0,25.0,CHINA:  DAQING,46.827,125.058,4.7,,,,,4.7,True,1.0,1.0,,,,CHINA,30,15.0,43.0,41.1,48.0,1.0,1.0,1.0,,5.0,1.0,,,,,12.0,,12.0,,,,,,,,,,,
6462,1982,12.0,28.0,JAPAN:  S. OF HONSHU ISLAND,33.826,139.434,6.1,,,2139.0,,6.1,True,,,,,,JAPAN,30,6.0,37.0,42.5,22.0,,,,,5.9,,,,,,,,,,,,,,,,,,,
9821,2011,5.0,11.0,SPAIN:  LORCA,37.699,-1.672,5.1,1.0,1.0,,,,True,10.0,1.0,1.0,,1.0,SPAIN,130,16.0,47.0,25.7,1.0,10.0,1.0,3.0,5.1,5.3,3.0,,1.0,,,,,,,,,,,,,,,,
10270,1948,5.0,23.0,CHINA:  SHANDONG PROVINCE,37.2,121.8,6.0,1.0,1.0,5659.0,,6.0,True,,,1.0,,1.0,CHINA,30,9.0,13.0,18.0,,,,,,,,,1.0,1.0,,,,,,,,,,,,,,,
3687,1941,11.0,12.0,TURKEY:  ERZINCAN,39.7,39.4,5.9,,,,,,True,,,,,,TURKEY,140,10.0,4.0,0.0,70.0,15.0,1.0,,,,,8.0,,,,,,,,,,,,,5.9,,,,
3851,1947,3.0,17.0,CHINA:  QINGHAI PROVINCE,33.3,99.5,7.7,,,,,7.7,True,,,,,,CHINA,30,8.0,19.0,41.0,,,,,,,,,,,,,,,,,,,,,,,,,
8138,2008,4.0,28.0,VANUATU ISLANDS,-19.941,168.953,6.4,,,3601.0,,6.2,True,,,,,,VANUATU,170,18.0,33.0,34.2,32.0,,,,6.4,6.2,,,,,,,,,,,,,,,,,,,
2615,1902,3.0,9.0,TURKEY:  CANKIRI,40.7,33.6,5.5,3.0,,,,,True,,,,,,TURKEY,140,7.0,46.0,0.0,,4.0,1.0,,,,,9.0,,,,,,,,,,,,,5.5,,,,
5245,1990,6.0,14.0,"PHILIPPINES:  CULASI, PANAY",11.76,121.899,7.1,2.0,,,,7.1,True,4.0,1.0,2.0,,,PHILIPPINES,170,7.0,40.0,56.2,18.0,4.0,1.0,1.0,,6.0,1.0,6.0,,,,15.0,,15.0,,,,,,,,,,,
3816,1945,12.0,28.0,PAPUA NEW GUINEA:  NEW BRITAIN,-6.0,150.0,7.8,,,,,,True,,,,,,PAPUA NEW GUINEA,170,17.0,48.0,0.0,60.0,,,,,,,,,,,,,,,,,,,,7.8,,,,
10359,2018,8.0,29.0,NEW CALEDONIA:  LOYALTY ISLANDS,-22.03,170.126,7.1,,,5688.0,,,True,,,,,,NEW CALEDONIA,170,3.0,51.0,1.0,21.0,,,,7.1,,,,,,,,,,,,,,,,,,,,
2369,1887,5.0,3.0,MEXICO:  BAVISPE,30.8,-109.25,7.4,3.0,3.0,1168.0,,8.0,True,51.0,2.0,3.0,,3.0,MEXICO,150,9.0,,,80.0,51.0,2.0,3.0,7.4,,3.0,12.0,,,,,,,,,,,,,,,,,
10512,1983,6.0,24.0,VIETNAM,21.721,103.282,6.3,2.0,,,,6.6,True,,1.0,2.0,,,VIETNAM,30,7.0,18.0,22.0,18.0,,,,6.3,,1.0,8.0,3.0,3.0,,,,,,,,,,,,,,,
5243,1990,6.0,8.0,COSTA RICA:  SANTIAGO DE PURISCAL,9.855,-84.327,4.6,1.0,,,,4.6,True,,,1.0,,,COSTA RICA,100,0.0,31.0,50.0,10.0,,,,,4.7,,,1.0,1.0,,,14.0,,14.0,,,,,,,,,,
3637,1939,4.0,30.0,SOLOMON ISLANDS,-9.295,159.234,7.9,2.0,2.0,1733.0,,7.9,True,12.0,1.0,2.0,,2.0,SOLOMON ISLANDS,170,2.0,55.0,29.1,35.0,,,,7.9,,,,,,,,,,,,,,,,,,,,
1339,1755,11.0,1.0,PORTUGAL:  LISBON,37.0,-10.0,8.5,4.0,4.0,456.0,,,True,50000.0,4.0,4.0,,4.0,PORTUGAL,130,9.0,30.0,,,50000.0,4.0,,8.5,,,11.0,4.0,4.0,,,,,,,,,,,,,,,
10101,2014,6.0,23.0,KERMADEC ISLANDS: SSE OF RAOUL ISLAND,-29.977,-177.725,6.9,,,5572.0,,,True,,,,,,NEW ZEALAND,170,19.0,19.0,15.9,20.0,,,,6.9,,,,,,,,,,,,,,,,,,,,
10180,1694,4.0,,TAIWAN:  TAIBEI (TAIPEI),25.0,121.5,5.5,,,5601.0,,5.5,True,,,,,,TAIWAN,30,,,,,,,,,,,7.0,,,,,,,,,,,,,,,,,
2679,1904,6.0,25.0,RUSSIA:  OFF KAMCHATKA,52.0,159.0,8.1,1.0,,1313.0,,8.1,True,,,1.0,,,RUSSIA,50,21.0,0.0,36.0,30.0,,,,,,,10.0,,,,,,,,,,,,,7.7,,,,
5111,1986,10.0,10.0,EL SALVADOR:  SAN SALVADOR,13.827,-89.118,5.4,4.0,,,,5.4,True,1100.0,4.0,4.0,,,EL SALVADOR,100,17.0,49.0,24.1,7.0,1100.0,4.0,4.0,,5.0,4.0,,,,,10000.0,,20000.0,,,1500.0,1500.0,,,,,,,
4205,1959,9.0,14.0,KERMADEC ISLANDS,-28.5,-177.0,7.7,,,,,,True,,,,,,KERMADEC ISLANDS (NEW ZEALAND),170,14.0,9.0,0.0,60.0,,,,,,,,,,,,,,,,,,,,7.7,,,,
4943,1982,6.0,7.0,"MEXICO:  GUERERRO, ORZIBA, OAXACA, GUADALUPE",16.558,-98.358,7.0,2.0,,,,7.0,True,9.0,1.0,2.0,,,MEXICO,150,10.0,59.0,40.1,34.0,9.0,1.0,3.0,,6.3,3.0,6.0,,,,,,,,,,,,,,,,,
5812,2004,11.0,20.0,"COSTA RICA:  SAN JOSE, PARRITA, QUEPOS",9.602,-84.172,6.4,3.0,3.0,,,6.3,True,8.0,1.0,3.0,526.0,3.0,COSTA RICA,100,8.0,7.0,22.0,16.0,8.0,1.0,2.0,6.4,6.2,2.0,,,,526.0,,,,,,,,,,,,,,
5439,1996,5.0,3.0,"CHINA:  NEI MONGOL:  BAOTOU, BEIJING, HOHHOT",40.774,109.661,6.0,4.0,,,,6.0,True,23.0,1.0,4.0,,,CHINA,30,3.0,32.0,47.1,26.0,23.0,1.0,3.0,6.0,5.5,3.0,8.0,,,,330.0,,330.0,,,,,,,6.0,,,,
6619,1930,8.0,31.0,CALIFORNIA:  SOUTHERN,34.03,-118.643,5.2,1.0,,1627.0,,5.2,True,1.0,1.0,1.0,,,USA,150,0.0,40.0,38.0,15.0,,,,,,,7.0,,,,,,,,,,,CA,,,,,,
5946,1433,11.0,7.0,"TOKAIDO, JAPAN",34.9,139.5,7.1,3.0,,133.0,,7.1,True,,3.0,3.0,,,JAPAN,30,,,,,,3.0,,,,,,,,,,,,,,,,,,,,,,
3948,1950,8.0,3.0,VENEZUELA: EL TOCUYO,9.71,-69.819,6.4,1.0,1.0,1805.0,,,True,100.0,2.0,1.0,,1.0,VENEZUELA,90,22.0,18.0,22.0,15.0,100.0,2.0,,6.4,,,,1.0,1.0,,,,,,,,,,,6.8,,,,
3649,1939,11.0,21.0,AFGHANISTAN,36.3,70.6,6.9,2.0,,,,,True,,,,,,AFGHANISTAN,40,11.0,2.0,0.0,220.0,,,,,,,,,,,,,,,,,,,,6.9,,,,
4139,1957,7.0,28.0,"MEXICO:  ACAPULCO,MEXICO CITY",16.5,-99.1,7.9,4.0,3.0,1870.0,,7.9,True,65.0,2.0,4.0,,3.0,MEXICO,150,8.0,40.0,1.0,25.0,65.0,2.0,3.0,,,3.0,7.0,,,,,,,,,25.0,25.0,,,,,,,
7527,1908,3.0,23.0,INDONESIA:  TIMOR,-10.0,129.0,6.6,1.0,,1369.0,,6.6,True,,,1.0,,,INDONESIA,60,12.0,20.0,,,,,,,,,,,,,,,,,,,,,,,,,,
4470,1968,11.0,3.0,BALKANS NW:  MONTENEGRO,42.1,19.3,5.3,4.0,,,,,True,,,,,,MONTENEGRO,130,4.0,49.0,0.0,17.0,1.0,1.0,,,,,,,,,,,,,,38.6,,,,5.3,,,,
5241,1990,5.0,30.0,"ROMANIA:  BUCHAREST, BRAILA, BRASOV",45.841,26.668,6.7,3.0,,,,,True,14.0,1.0,3.0,,,ROMANIA,110,10.0,40.0,6.1,89.0,14.0,1.0,3.0,,6.7,3.0,6.0,,,,700.0,,700.0,,,23.7,23.7,,,,,,,
9847,2011,4.0,10.0,CHINA:  SICHUAN PROVINCE:  LUHUO,31.373,100.757,5.1,1.0,,,,,True,,,1.0,,1.0,CHINA,30,9.0,2.0,47.3,43.0,,,,,5.1,,,1.0,,,,,,,,,,,,,,,,
10377,2018,11.0,28.0,AFGHANISTAN:  HINDU KUSH:  BAGHLAN,35.808,68.687,4.9,1.0,,,,,True,,,1.0,,,AFGHANISTAN,40,14.0,44.0,39.0,22.0,,,1.0,4.9,,1.0,,2.0,2.0,,9.0,60.0,9.0,60.0,,,,,,,,,,
757,1570,2.0,8.0,CHILE:  OLD CONCEPCION,-36.75,-73.0,8.3,2.0,3.0,179.0,,8.3,True,2000.0,4.0,3.0,,3.0,CHILE,160,13.0,,,,,,,,,,11.0,,,,,,,,,,,,,,,,,
4878,1980,5.0,25.0,CALIFORNIA:  MAMMOTH LAKES,37.6,-118.84,6.1,2.0,,,,6.1,True,,,2.0,,,USA,150,16.0,33.0,44.7,7.0,,,1.0,,6.1,1.0,7.0,,,,7.0,,7.0,,,2.0,2.0,CA,,,,,,
2559,1899,9.0,20.0,"TURKEY:  SULTANHISAR,ATCA,NAZILLI,KUYUCAK,DENIZLI",37.93,28.84,6.7,3.0,4.0,,,6.7,True,1117.0,4.0,3.0,7126.0,4.0,TURKEY,140,2.0,12.0,,,1117.0,4.0,4.0,,,4.0,9.0,,,7126.0,,,,,,,,,,,,,,
6484,1992,7.0,18.0,JAPAN:  HONSHU ISLAND,39.419,143.33,7.0,,,2211.0,,7.0,True,,,,,,JAPAN,30,8.0,36.0,58.7,29.0,,,,,6.2,,,,,,,,,,,,,,,,,,,
7463,2007,2.0,21.0,"TURKEY:  DOGANKOY, PUTURGE, SIVRICE",38.318,39.267,5.7,1.0,1.0,,,5.5,True,,,1.0,,1.0,TURKEY,140,11.0,5.0,29.2,10.0,,,,5.7,5.7,,,1.0,,,,,,,5.9,,,,,,,,,
3176,1921,9.0,16.0,CENTRAL AFRICAN REPUBLIC:  NOLA,3.8,16.3,4.8,1.0,,,,,True,,,,,,CENTRAL AFRICAN REPUBLIC,10,0.0,51.0,0.0,,,,,,,,8.0,,,,,,,,,,,,,4.8,,,,
1589,1811,1.0,1.0,GEORGIA:  KAKHETIYA,41.8,45.2,4.2,2.0,,,,,True,,,,,,GEORGIA,40,5.0,,0.0,7.0,,,,,,,7.0,,,,,,,,,,,,,4.2,,,,
8043,1955,6.0,7.0,CHINA:  YUNNAN PROVINCE,26.5,101.1,6.0,3.0,4.0,,,6.0,True,,,3.0,4524.0,4.0,CHINA,30,0.0,48.0,54.0,,,,,,,,8.0,,,4524.0,,,,,,,,,,,,,,
9937,2012,9.0,7.0,CHINA: YUNNAN PROVINCE:  ZHAOTONG:  YILIANG,27.575,103.983,5.6,4.0,4.0,,,5.4,True,81.0,2.0,4.0,37000.0,4.0,CHINA,30,3.0,19.0,42.5,10.0,81.0,2.0,3.0,5.6,5.6,3.0,,4.0,4.0,37000.0,821.0,133000.0,821.0,133000.0,,1000.0,1000.0,,,,,,,
4880,1980,6.0,29.0,JAPAN:  HONSHU:  S COAST,34.808,139.181,6.2,2.0,,2124.0,,6.2,True,,,2.0,,,JAPAN,30,7.0,20.0,5.5,15.0,,,1.0,,5.8,1.0,8.0,,,,7.0,,7.0,,,,,,,,,,,
5160,1988,3.0,30.0,"IRAN:  DEH DASHT, BAHBAHAN",30.89,50.194,5.7,2.0,,,,5.7,True,,,,,,IRAN,140,2.0,12.0,42.8,33.0,,,,,5.4,,,,,,,,,,,,,,,,,,,
2892,1909,10.0,31.0,"MEXICO:  GUERRERO,MICHOACAN",17.0,-101.2,4.7,3.0,,,,,True,,,,,,MEXICO,150,10.0,23.0,0.0,,,,,,,,,,,,,,,,,,,,,4.7,,,,
5060,1985,3.0,17.0,"CHILE:  VALPARAISO, VINA DEL MAR",-32.663,-71.551,6.6,2.0,,,,6.6,True,1.0,1.0,2.0,,,CHILE,160,10.0,41.0,38.4,33.0,1.0,1.0,,,5.9,,7.0,,,,,,,,,,,,,,,,,
2525,1897,10.0,18.0,PHILIPPINES:  NORTHERN SAMAR,12.0,126.0,8.1,2.0,1.0,5456.0,,8.1,True,,1.0,2.0,17.0,1.0,PHILIPPINES,170,23.0,48.0,,33.0,,,,,,,9.0,,,17.0,,,,,,,,,,,,,,
10084,2014,4.0,12.0,SOLOMON ISLANDS,-11.27,162.148,7.6,,,5559.0,,,True,,,,,,SOLOMON ISLANDS,170,20.0,14.0,39.3,23.0,,,,7.6,,,,,,,,,,,,,,,,,,,,
5309,1991,11.0,4.0,IRAN:  BEHBAHAN,30.666,50.218,5.4,2.0,3.0,,,5.4,True,,,2.0,290.0,3.0,IRAN,140,1.0,50.0,31.6,39.0,,,2.0,,5.4,2.0,,,,290.0,51.0,,51.0,,,,,,,,,,,
6564,1862,3.0,4.0,"PHILIPPINES:  S LUZON ISLAND, MINDORO ISLAND",14.5,121.0,6.5,1.0,,920.0,,6.5,True,,,1.0,,,PHILIPPINES,170,9.0,30.0,,,,,,,,,,1.0,1.0,,,,,,,,,,,,,,,
10230,2016,11.0,27.0,"NEPAL:   MOUNT AMA DABLAM, CHARIKHARKA",27.802,86.532,5.4,1.0,1.0,,,,True,1.0,1.0,1.0,2.0,1.0,NEPAL,40,23.0,35.0,2.0,10.0,1.0,1.0,1.0,,5.4,1.0,4.0,,,2.0,1.0,,1.0,,,,,,,,,,,
6832,1994,6.0,3.0,INDONESIA:  JAVA,-10.362,112.892,6.6,,,2592.0,,6.4,True,,,,,,INDONESIA,60,21.0,6.0,59.8,26.0,,,,6.6,6.1,,,,,,,,,,,,,,,,,,,
3980,1951,8.0,21.0,HAWAII,19.7,-156.0,6.9,2.0,1.0,1815.0,,,True,,,,,,USA,150,10.0,57.0,0.0,60.0,,,1.0,,,,,3.0,,8.0,2.0,230.0,,,,,,HI,,6.9,,,,
3181,1921,11.0,15.0,AFGHANISTAN:  HINDU KUSH,36.5,70.5,7.8,,,,,,True,,,,,,AFGHANISTAN,40,20.0,36.0,0.0,215.0,,,,,,,,,,,,,,,,,,,,7.8,,,,
8632,2009,12.0,19.0,MALAWI:  KARONGA,-10.108,33.818,6.0,3.0,4.0,,,6.0,True,3.0,1.0,3.0,1111.0,4.0,MALAWI,10,23.0,19.0,15.5,6.0,3.0,1.0,3.0,6.0,6.0,3.0,,4.0,4.0,1111.0,250.0,1111.0,250.0,3565.0,,,,,,,,,,
8277,2009,4.0,7.0,ITALY:  L'AQUILA,42.275,13.464,5.5,1.0,,,,5.4,True,1.0,1.0,1.0,,,ITALY,130,17.0,47.0,37.0,15.0,1.0,1.0,,5.5,5.4,,,1.0,1.0,,,,,,,,,,,,,,,
4378,1966,9.0,4.0,COLOMBIA,4.62,-73.98,5.3,2.0,3.0,,,,True,6.0,1.0,2.0,200.0,3.0,COLOMBIA,160,22.0,14.0,0.0,15.0,6.0,1.0,1.0,5.3,5.0,1.0,7.0,,,200.0,30.0,,30.0,,,,,,,5.2,,,,
1060,1670,10.0,30.0,"SOUTH KOREA:  KWANGJU,SUNCHANG,UNKYO,KOSAN",35.9,126.5,6.3,2.0,,,,,True,,,,,,SOUTH KOREA,30,,,0.0,,,,,,,,8.0,,,,,,,,,,,,,6.3,,,,
10280,1976,7.0,11.0,PANAMA: DARIEN,7.4,-78.1,6.7,1.0,,5669.0,,6.7,True,5.0,1.0,1.0,,,PANAMA,100,16.0,54.0,31.8,22.0,5.0,1.0,1.0,,6.3,1.0,,,,,7.0,,7.0,,,,,,,,,,,
10581,2018,6.0,13.0,"INDONESIA:  MADURA ISLAND, JAVA",-7.001,113.888,4.6,2.0,,,,,True,,,2.0,,,INDONESIA,60,13.0,6.0,44.0,10.0,,,1.0,,4.6,1.0,,2.0,2.0,,6.0,77.0,6.0,77.0,,,,,,,,,,
10181,2016,5.0,18.0,ECUADOR:  MANABI PROVINCE,0.495,-79.616,6.9,1.0,1.0,,,,True,1.0,1.0,1.0,,1.0,ECUADOR,160,16.0,47.0,26.0,30.0,1.0,1.0,3.0,6.9,,3.0,4.0,1.0,1.0,,162.0,32.0,162.0,32.0,,,,,,,,,,
9940,1882,12.0,9.0,TAIWAN:  ZHANGHUA,23.8,120.5,6.3,1.0,1.0,1129.0,,6.3,True,8.0,1.0,1.0,40.0,1.0,TAIWAN,30,,,,,8.0,1.0,1.0,,,1.0,8.0,,,40.0,3.0,,3.0,,,,,,,,,,,
7232,2006,3.0,25.0,IRAN:  SOUTHERN,27.574,55.685,5.9,1.0,,,,5.5,True,1.0,1.0,1.0,,,IRAN,140,7.0,28.0,57.6,18.0,1.0,1.0,1.0,5.9,5.7,1.0,,,,,1.0,,1.0,,,,,,,,,,,
5807,2004,10.0,23.0,JAPAN:  HONSHU:  NIIGATA PREFECTURE,37.226,138.779,6.6,4.0,4.0,,,6.3,True,40.0,1.0,4.0,6000.0,4.0,JAPAN,30,8.0,56.0,0.8,16.0,40.0,1.0,4.0,6.6,6.4,4.0,,,,6000.0,3183.0,,3183.0,,,28000.0,28000.0,,,,,,,
3299,1926,11.0,22.0,CHINA:  YUNNAN PROVINCE,25.6,100.3,5.5,1.0,2.0,,,5.5,True,,3.0,1.0,,2.0,CHINA,30,,,,,,3.0,,,,,7.0,,,,,,,,,,,,,,,,,
10497,1505,6.0,6.0,NEPAL-INDIA,29.5,83.0,8.2,3.0,3.0,,,8.2,True,,3.0,3.0,,3.0,NEPAL,60,,,,,,3.0,,8.2,,,,,,,,,,,,,,,,,,,,
7228,2006,3.0,7.0,INDIA:  GUJARAT,23.777,70.899,5.5,1.0,1.0,,,5.1,True,,,1.0,,1.0,INDIA,60,18.0,20.0,46.1,10.0,,,1.0,5.5,5.2,1.0,,1.0,,,7.0,,7.0,,,,,,,,,,,
6771,2005,8.0,14.0,INDIA:  MAHARASHTRA,17.398,74.118,4.4,2.0,,,,,True,,,2.0,,,INDIA,60,6.0,33.0,32.5,35.0,,,,,4.4,,7.0,,,,,,,,,,,,,,,,,
6779,2005,10.0,20.0,TURKEY:  IZMIR,38.152,26.751,5.9,1.0,2.0,,,5.7,True,1.0,1.0,1.0,,2.0,TURKEY,140,21.0,40.0,4.0,10.0,1.0,1.0,1.0,5.9,5.5,1.0,,2.0,,,15.0,,15.0,,,,,,,,,,,
8388,2009,7.0,4.0,PANAMA: PANAMA CITY,9.59,-78.966,6.0,1.0,,,,5.5,True,,,1.0,,,PANAMA,100,6.0,49.0,35.5,38.0,,,1.0,6.0,6.0,1.0,5.0,,1.0,,32.0,,32.0,10.0,,,,,,,,,,
3218,1923,3.0,24.0,CHINA:  SICHUAN PROVINCE,31.5,101.0,7.3,3.0,4.0,,,7.3,True,4800.0,4.0,3.0,,4.0,CHINA,30,12.0,40.0,6.0,13.0,4800.0,4.0,,,,,10.0,,,,,,,,,,,,,,,,,
5370,1994,1.0,3.0,CHINA:  QINGHAI PROVINCE:  GONGHE,36.028,100.104,5.7,1.0,2.0,,,5.5,True,,,1.0,56.0,2.0,CHINA,30,5.0,52.0,27.6,8.0,,,1.0,5.7,5.8,1.0,,2.0,,56.0,5.0,56.0,5.0,,,,,,,,,,,
5376,1994,2.0,3.0,WYOMING:  AFTON,42.762,-110.976,5.8,1.0,,,,5.5,True,,,1.0,,,USA,150,9.0,5.0,4.2,8.0,,,,5.8,5.4,,7.0,,,,,,,,,,,WY,,,,,,
5173,1988,10.0,31.0,"ALGERIA:  BLIDA, MEDEA-ALGIERS",36.443,2.759,5.6,2.0,,,,5.6,True,,,,,,ALGERIA,15,10.0,12.0,58.4,12.0,,,,,5.4,,,,,,,,,,,,,,,,,,,
10391,2019,2.0,1.0,INDIA:  MAHARASHTRA:  PALGHAR,19.9,72.8,3.6,1.0,,,,,True,1.0,1.0,1.0,,,INDIA,60,10.0,23.0,54.0,5.0,1.0,1.0,,,,,,,,,,,,,,,,,,3.6,,,,
4254,1961,12.0,20.0,COLOMBIA: EJE CAFETERO,4.49,-75.51,6.8,2.0,1.0,,,6.8,True,23.0,1.0,2.0,,1.0,COLOMBIA,160,13.0,25.0,0.0,163.0,23.0,1.0,2.0,,,2.0,8.0,2.0,2.0,,100.0,,100.0,,,,,,,6.9,,,,
2586,1900,12.0,25.0,RUSSIA:  KURIL ISLANDS,43.0,146.0,7.9,,,,,,True,,,,,,RUSSIA,50,5.0,9.0,0.0,40.0,,,,,,,9.0,,,,,,,,,,,,,7.9,,,,
1760,1833,9.0,18.0,PERU-CHILE:  PERU:  TACNA; CHILE:  ARICA,-18.251,-71.01,7.7,3.0,4.0,5657.0,,7.7,True,700.0,3.0,3.0,1001.0,4.0,PERU,160,10.0,45.0,,,700.0,3.0,1.0,,,1.0,8.0,,,1001.0,25.0,,25.0,,,,,,,,,,,
1028,1664,5.0,12.0,"PERU:  ICA, PISCO",-14.1,-75.8,7.3,3.0,3.0,5809.0,,,True,400.0,3.0,3.0,,3.0,PERU,160,9.0,15.0,,15.0,400.0,3.0,,,,,10.0,,,,,,,,,,,,,7.3,,,,
2073,1863,6.0,3.0,"PHILIPPINES:  MANILA, RIZAL, BULACAN",14.5,121.0,6.5,4.0,4.0,928.0,,6.5,True,400.0,3.0,4.0,1172.0,4.0,PHILIPPINES,170,11.0,20.0,,,400.0,3.0,4.0,,,4.0,10.0,,,1172.0,2000.0,,2000.0,,,,,,,,,,,
5043,1984,8.0,27.0,INDONESIA:  N SUMATERA:  TARUTUNG,1.761,99.075,5.2,2.0,3.0,,,5.2,True,,,2.0,415.0,3.0,INDONESIA,60,6.0,41.0,26.2,33.0,,,3.0,,5.1,3.0,,,,415.0,123.0,,123.0,,,1.0,1.0,,,,,,,
3568,1936,1.0,9.0,COLOMBIA,1.1,-77.6,5.6,2.0,1.0,,,5.6,True,250.0,3.0,2.0,,1.0,COLOMBIA,160,9.0,23.0,0.0,10.0,250.0,3.0,,,,,7.0,,,,,,,,,,,,,7.0,,,,
5321,1992,4.0,25.0,"CALIFORNIA: HUMBOLDT COUNTY: FERNDALE, PETROLIA",40.368,-124.316,7.1,4.0,,2208.0,,7.1,True,,,4.0,,,USA,150,18.0,6.0,4.2,15.0,,,2.0,,6.3,2.0,8.0,,,,98.0,,98.0,,,75.0,75.0,CA,,,,,,
5280,1991,4.0,18.0,AFGHANISTAN:  BADAKHSTAN PROVINCE,37.457,68.273,5.1,3.0,,,,5.1,True,,2.0,3.0,,,AFGHANISTAN,40,9.0,18.0,30.4,33.0,,2.0,3.0,,5.4,3.0,7.0,3.0,3.0,,,1000.0,,1000.0,,,,,,,,,,
5738,2003,12.0,1.0,CHINA:  XINJIANG:  ZHAOSU,42.905,80.515,6.0,3.0,3.0,,,5.9,True,11.0,1.0,3.0,769.0,3.0,CHINA,40,1.0,38.0,31.9,10.0,11.0,1.0,1.0,6.0,6.0,1.0,,,,769.0,47.0,,47.0,,,,,,,,,,,
3076,1917,1.0,30.0,RUSSIA:  KAMCHATKA,56.5,163.0,7.8,,,1441.0,,7.8,True,,,,,,RUSSIA,50,2.0,45.0,36.0,40.0,,,,,,,,,,,,,,,,,,,,,,,,
5531,1999,9.0,7.0,GREECE:  ATHENS,38.119,23.605,6.0,4.0,4.0,,,5.8,True,143.0,3.0,4.0,53000.0,4.0,GREECE,130,11.0,56.0,49.3,10.0,143.0,3.0,4.0,6.0,5.6,4.0,9.0,,,53000.0,1600.0,,1600.0,,,4200.0,4200.0,,,,,,,
3486,1932,3.0,8.0,"FIJI ISLANDS:  KORO,MUDU,SUVASAVU",-17.5,179.6,6.2,2.0,,,,,True,,,,,,FIJI,170,18.0,1.0,0.0,,,,,,,,7.0,,,,,,,,,,,,,6.2,,,,
3414,1930,7.0,2.0,"BANGLADESH:  DHUBRI,ASSAM",25.5,90.0,7.1,3.0,,,,7.1,True,,,3.0,,,BANGLADESH,60,21.0,3.0,42.0,,,,,,,,9.0,,,,,,,,,,,,,,,,,
3747,1943,6.0,20.0,"TURKEY:  HENDEK, ADAPAZARI",40.5,30.525,6.4,3.0,,,,6.6,True,285.0,3.0,3.0,,,TURKEY,140,15.0,32.0,53.4,15.0,285.0,3.0,,6.4,,,10.0,,,,,,,,,,,,,6.2,,,,
9839,2011,9.0,2.0,ALASKA:  ALEUTIAN ISLANDS:  FOX ISLANDS,52.171,-171.708,6.8,,,5438.0,,6.9,True,,,,,,USA,150,10.0,55.0,53.5,32.0,,,,6.8,6.5,,,,,,,,,,,,,AK,,,,,,
10405,2017,2.0,6.0,TURKEY:  CANAKKALE,39.599,26.065,5.3,2.0,,,,,True,,,2.0,,,TURKEY,140,3.0,52.0,4.0,10.0,,,1.0,5.3,,1.0,,2.0,2.0,,5.0,90.0,5.0,90.0,,,,,,,,,,
6414,1965,7.0,2.0,ALASKA:  ALEUTIAN ISLANDS:  FOX ISLANDS,53.03,-167.55,6.5,1.0,,1971.0,,6.5,True,,,1.0,,,USA,150,20.0,58.0,38.1,40.0,,,,,7.0,,,,,,,,,,,,,AK,,,,,,
5372,1994,1.0,17.0,CALIFORNIA:  NORTHRIDGE,34.213,-118.537,6.7,4.0,4.0,2223.0,,6.8,True,60.0,2.0,4.0,40000.0,4.0,USA,150,12.0,30.0,55.3,18.0,60.0,2.0,4.0,6.7,6.4,4.0,9.0,,,40000.0,7000.0,,7000.0,,,40000.0,40000.0,CA,,,,,,
5693,2003,5.0,4.0,CHINA:  S. XINJIANG:  YOPURGA,39.43,77.219,5.8,3.0,4.0,,,5.6,True,1.0,1.0,3.0,1600.0,4.0,CHINA,40,15.0,44.0,35.5,10.0,1.0,1.0,1.0,5.8,5.0,1.0,,,,1600.0,3.0,,3.0,,,,,,,,,,,
10481,2016,8.0,20.0,JAPAN:  OFF EAST COAST HONSHU,40.394,143.68,6.0,,,5741.0,,,True,,,,,,JAPAN,30,9.0,1.0,26.0,10.0,,,,6.0,,,2.0,,,,,,,,,,,,,,,,,
10195,2016,8.0,24.0,MYANMAR (BURMA): CHAUK,20.923,94.569,6.8,3.0,,,,,True,4.0,1.0,3.0,,,MYANMAR (BURMA),60,10.0,34.0,58.0,82.0,4.0,1.0,1.0,6.8,,1.0,5.0,3.0,2.0,,20.0,230.0,20.0,230.0,,10.0,10.0,,,,,,,
10144,1905,1.0,20.0,COSTA RICA:  PUNTARENAS,9.85,-84.68,6.8,1.0,,5587.0,,6.8,True,,,1.0,,,COSTA RICA,100,18.0,23.0,,,,,,,,,,,,,,,,,,,,,,,,,,
10080,2014,4.0,3.0,CHILE:  NORTHERN:  IQUIQUE,-20.571,-70.493,7.7,,,5558.0,,,True,,,,,,CHILE,160,2.0,43.0,13.1,22.0,,,,7.7,,,8.0,,,,,,,,,,,,,,,,,
2827,1907,10.0,23.0,ITALY:  FERRUZANO,38.133,16.017,5.9,2.0,3.0,3415.0,,5.9,True,158.0,3.0,2.0,,3.0,ITALY,130,20.0,28.0,19.0,33.0,158.0,3.0,,,,,10.0,,,,,,,,,,,,,,,,,
7702,2007,11.0,16.0,PERU-ECUADOR:  GUAYAQUIL,-2.312,-77.838,6.8,1.0,,,,,True,,,1.0,,,ECUADOR,160,3.0,13.0,0.1,123.0,,,,6.8,6.3,,,,,,,,,,,,,,,,,,,
10040,2013,9.0,25.0,PERU:  AREQUIPA,-15.839,-74.511,7.1,1.0,1.0,,,,True,,,1.0,,1.0,PERU,160,16.0,42.0,43.2,40.0,,,,7.1,,,8.0,,,,,,,,,,,,,,,,,
5129,1987,3.0,5.0,"CHILE:  ANTOFAGASTA, ARICA",-24.388,-70.161,7.3,2.0,,2169.0,,7.3,True,1.0,1.0,2.0,,,CHILE,160,9.0,17.0,5.2,62.0,1.0,1.0,,,6.5,,6.0,,,,,,,,,,,,,,,,,
9805,2011,3.0,11.0,JAPAN:  NEAR E COAST HONSHU,36.281,141.111,7.9,,,,,,True,,,,,,JAPAN,30,6.0,15.0,40.2,43.0,,,,7.9,6.8,,,,,,,,,,,,,,,,,,,
10605,2022,3.0,16.0,JAPAN:  OFF FUKUSHIMA,37.702,141.587,7.3,4.0,3.0,5832.0,,,True,4.0,1.0,4.0,217.0,3.0,JAPAN,30,14.0,36.0,33.0,63.0,4.0,1.0,3.0,7.3,,3.0,9.0,4.0,4.0,217.0,247.0,56718.0,247.0,56718.0,,8800.0,8800.0,,,,,,,
10404,2017,2.0,24.0,ZAMBIA:  KAPUTA,-8.44,30.031,5.9,1.0,1.0,,,,True,,,1.0,,1.0,ZAMBIA,10,0.0,32.0,8.0,30.0,,,1.0,5.9,,1.0,,,,,5.0,,5.0,,,,,,,,,,,
6005,1667,,,"MIYAKOJIMA, JAPAN",25.0,125.5,6.7,,,295.0,,6.7,True,,,,,,JAPAN,30,,,,,,,,,,,,,,,,,,,,,,,,,,,,
10683,2023,4.0,24.0,KERMADEC ISLANDS:  S OF,-29.968,-177.826,7.1,,,5879.0,,,True,,,,,,KERMADEC ISLANDS (NEW ZEALAND),170,0.0,41.0,55.0,43.0,,,,7.1,,,,,,,,,,,,,,,,,,,,
10370,2018,10.0,7.0,HAITI: PORT-DEX-PAIX,20.034,-73.013,5.9,3.0,4.0,,,,True,18.0,1.0,3.0,2102.0,4.0,HAITI,90,0.0,11.0,22.0,24.0,18.0,1.0,3.0,5.9,,3.0,,4.0,4.0,2102.0,580.0,15932.0,580.0,15932.0,,,,,,,,,,
3170,1921,2.0,4.0,GUATEMALA,15.0,-91.0,7.5,,,,,,True,,,,,,GUATEMALA,100,8.0,22.0,44.0,120.0,,,,,,,,,,,,,,,,,,,,7.5,,,,
3531,1934,3.0,5.0,NEW ZEALAND:  NORTH ISLAND,-40.5,175.5,7.5,,,,,,True,,,,,,NEW ZEALAND,170,11.0,46.0,0.0,60.0,,,,,,,,,,,,,,,,,,,,7.5,,,,
10252,2017,6.0,12.0,GREECE: LESBOS,38.93,26.365,6.3,2.0,1.0,5652.0,,,True,1.0,1.0,2.0,10.0,1.0,GREECE,130,12.0,28.0,15.0,12.0,1.0,1.0,1.0,6.3,,1.0,,3.0,3.0,10.0,15.0,250.0,15.0,250.0,,,,,,,,,,
10193,2014,10.0,14.0,EL SALVADOR:  GULF OF FONSECA,12.526,-88.123,7.3,1.0,1.0,5607.0,,,True,1.0,1.0,1.0,5.0,1.0,EL SALVADOR,100,3.0,51.0,34.5,40.0,1.0,1.0,,7.3,,,8.0,1.0,1.0,5.0,,41.0,,41.0,,,,,,,,,,
10437,2017,5.0,3.0,"KYRGYZSTAN:  OSH, BATKEN",39.494,71.444,6.0,3.0,3.0,,,,True,,,3.0,537.0,3.0,TAJIKISTAN,40,4.0,47.0,38.0,11.0,,,,6.0,,,,,,537.0,,,,,,,,,,,,,,
3406,1930,2.0,14.0,GREECE:  AITANIA-VATHIA (CRETE),35.8,24.8,6.7,,,,,,True,,,,,,GREECE,130,18.0,38.0,0.0,130.0,,2.0,,,,,11.0,,,,,,,,,,,,,6.7,,,,
7456,2007,1.0,21.0,INDONESIA:  MOLUCCA ISLANDS:  N,1.065,126.282,7.5,1.0,,,,7.3,True,4.0,1.0,1.0,,,INDONESIA,170,11.0,27.0,45.0,22.0,4.0,1.0,1.0,7.5,6.7,1.0,,,,,4.0,,4.0,,,,,,,,,,,
8200,1879,7.0,11.0,EGYPT:  GULF OF SUEZ,29.0,33.0,5.9,,,3644.0,,5.9,True,,,,,,EGYPT,15,18.0,,,,,,,,,,,,,,,,,,,,,,,,,,,
7406,2006,11.0,15.0,RUSSIA:  KURIL ISLANDS,46.592,153.266,8.3,,,3016.0,,7.8,True,,,2.0,,,RUSSIA,50,11.0,14.0,13.5,10.0,,,,8.3,6.5,1.0,,,,,,,1.0,,,,,,,,,,,
9849,2011,11.0,1.0,CHINA:  XINJIANG PROVINCE,43.648,82.437,5.6,3.0,4.0,,,5.4,True,,,3.0,2453.0,2.0,CHINA,40,0.0,21.0,28.0,28.0,,,,5.6,6.0,,,3.0,3.0,2453.0,,,,,,10.5,10.5,,,,,,,
7947,1621,3.0,,CHINA:  HEBEI PROVINCE,39.5,116.7,5.5,1.0,1.0,,,5.5,True,,1.0,1.0,,1.0,CHINA,30,,,,,,1.0,,,,,7.0,,,,,,,,,,,,,,,,,
782,1584,3.0,17.0,PERU,-11.8,-77.8,8.4,1.0,,5410.0,,8.4,True,,,1.0,,,PERU,160,,,,30.0,,,,,,,7.0,1.0,1.0,,,,,,,,,,,,,,,
6283,1923,5.0,4.0,CHILE:  VALLENAR,-28.75,-71.75,7.0,2.0,2.0,1518.0,,7.0,True,,,2.0,,2.0,CHILE,160,22.0,26.0,45.0,60.0,,,,,6.7,,,2.0,2.0,,,,,,,,,,,,,,,
8073,1964,9.0,1.0,CHINA:  SHANXI PROVINCE,35.1,111.6,4.7,1.0,1.0,,,4.7,True,,,1.0,23.0,1.0,CHINA,30,22.0,20.0,30.0,,,,,,,,,,,23.0,,,,,,,,,,,,,,
6131,1858,12.0,13.0,INDONESIA:  N. MOLUCCAS ISLANDS,1.0,126.0,7.3,1.0,1.0,879.0,,7.3,True,,,3.0,,3.0,INDONESIA,170,,,,,,,,,,,,,,15.0,,,,,,,,,,,,,,
4362,1966,3.0,20.0,"UGANDA: KICHWAMBA, BONDIBOGYO;  TANZANIA;  DR CONGO",0.622,29.863,6.6,2.0,3.0,,,7.0,True,157.0,3.0,2.0,,3.0,UGANDA,10,1.0,42.0,53.7,29.0,157.0,3.0,4.0,6.6,,3.0,7.0,,,,1300.0,,1300.0,,,1.5,1.5,,,,,,,
3426,1930,10.0,30.0,ITALY:  SENIGALLIA,43.89,13.483,6.0,3.0,3.0,4223.0,,5.9,True,18.0,1.0,3.0,,3.0,ITALY,130,7.0,13.0,10.1,15.0,18.0,1.0,,6.0,,,9.0,,,,,,,,,,,,,,,,,
6343,1940,8.0,1.0,JAPAN:  W. HOKKAIDO ISLAND,44.2,139.5,7.5,1.0,,1741.0,,7.5,True,10.0,1.0,2.0,20.0,1.0,JAPAN,30,15.0,8.0,24.0,10.0,,,,,,,9.0,,,,,,,,,,,,,,,,,
10148,2015,8.0,7.0,RWANDA:  BUKAVU,-2.141,28.897,5.8,,,,,,True,3.0,1.0,,,,RWANDA,10,1.0,25.0,54.0,11.0,3.0,1.0,1.0,5.8,,1.0,4.0,,,,30.0,,30.0,,,,,,,,,,,
5665,2002,11.0,27.0,VANUATU ISLANDS: MERE LAVA ISLAND,-14.49,167.827,5.9,2.0,,,,5.8,True,,,2.0,,,VANUATU,170,16.0,43.0,17.5,33.0,,,1.0,5.9,5.6,1.0,,,2.0,,3.0,,3.0,100.0,,,,,,,,,,
5701,2003,2.0,15.0,"PHILIPPINES: MASBATE, DIMASALANG",12.168,124.079,6.3,1.0,,,,6.2,True,,,1.0,,,PHILIPPINES,170,11.0,1.0,59.8,10.0,,,,6.3,5.8,,6.0,2.0,2.0,,,,,,,,,,,,,,,
3675,1941,2.0,16.0,IRAN:  MOHAMMADABAD,33.527,58.776,6.3,3.0,,,,6.2,True,730.0,3.0,3.0,,,IRAN,140,16.0,38.0,0.0,15.0,730.0,3.0,,6.3,,,8.0,,,,,,,,,,,,,6.3,,,,
10523,2020,12.0,29.0,BALKANS NW:  CROATIA:  PETRINJA,45.422,16.255,6.4,4.0,4.0,,,,True,8.0,1.0,4.0,1500.0,4.0,CROATIA,130,11.0,19.0,54.0,10.0,8.0,1.0,1.0,6.4,,1.0,9.0,4.0,4.0,1500.0,36.0,46000.0,36.0,46000.0,,4187.0,4187.0,,,,,,,
3779,1944,5.0,25.0,PAPUA NEW GUINEA:  NEW IRELAND,-2.5,152.8,7.5,,,,,,True,,,,,,PAPUA NEW GUINEA,170,12.0,58.0,0.0,60.0,,,,,,,,,,,,,,,,,,,,7.5,,,,
5478,1997,11.0,21.0,"INDIA-BANGLADESH:  CHITTAGONG, BANGLADESH",22.212,92.702,6.1,1.0,1.0,,,,True,23.0,1.0,1.0,1.0,1.0,INDIA,60,11.0,23.0,6.3,54.0,23.0,1.0,3.0,6.1,5.9,3.0,,1.0,1.0,1.0,200.0,,200.0,,,,,,,,,,,
7918,1494,3.0,24.0,CHINA:  YUNNAN PROVINCE:  QUJING,25.5,103.8,5.5,2.0,2.0,,,5.5,True,3.0,1.0,2.0,200.0,3.0,CHINA,30,,,,,3.0,1.0,,,,,7.0,,,200.0,,,,,,,,,,,,,,
836,1606,11.0,30.0,CHINA:  YUNNAN PROVINCE:  JIANSHUI,23.6,102.8,6.5,4.0,4.0,,,6.5,True,2000.0,4.0,4.0,,4.0,CHINA,30,,,,,2000.0,4.0,,,,,9.0,,,,,,,,,,,,,,,,,
3639,1939,5.0,1.0,JAPAN:  HONSHU:  NW,40.1,139.5,7.0,2.0,3.0,1734.0,,7.0,True,27.0,1.0,2.0,479.0,3.0,JAPAN,30,5.0,58.0,,,27.0,1.0,2.0,,,2.0,,,,479.0,52.0,,52.0,,,,,,,,,,,
5605,2001,7.0,14.0,CHINA:  YUNNAN PROVINCE:  JIANGCHUAN,24.455,102.66,4.3,1.0,3.0,,,4.3,True,,,1.0,150.0,3.0,CHINA,30,18.0,36.0,8.3,33.0,,,1.0,,4.6,1.0,,3.0,,150.0,2.0,150.0,2.0,,4.7,,,,,,,,,
7917,1488,9.0,16.0,CHINA:  SICHUAN PROVINCE:  MAOWEN,31.7,103.9,5.5,1.0,1.0,,,5.5,True,,,1.0,37.0,1.0,CHINA,30,,,,,,2.0,,,,,7.0,,,37.0,,,,,,,,,,,,,,
2732,1905,9.0,8.0,"ITALY:  MONTELEONE, TROPEA, MONTE PORO",38.67,16.07,7.1,4.0,4.0,3411.0,,7.1,True,557.0,3.0,4.0,6700.0,4.0,ITALY,130,1.0,43.0,11.0,15.0,557.0,3.0,4.0,,,4.0,11.0,,,6700.0,2000.0,,2000.0,,,,,,,,,,,
7942,1579,12.0,21.0,CHINA:  YUNNAN PROVINCE:  BAOSHAN,25.1,99.9,5.0,1.0,,,,5.0,True,10.0,1.0,1.0,,,CHINA,30,,,,,10.0,1.0,,,,,6.0,,,,,,,,,,,,,,,,,
7955,1642,6.0,30.0,CHINA:  SHANXI PROVINCE,35.1,111.1,6.0,1.0,1.0,,,6.0,True,,2.0,,,1.0,CHINA,30,,,,,,2.0,,,,,8.0,,,,,,,,,,,,,,,,,
8167,2008,8.0,1.0,CHINA:  SICHUAN PROVINCE,32.036,104.722,5.7,2.0,3.0,,,5.6,True,,,2.0,540.0,3.0,CHINA,30,8.0,32.0,43.0,7.0,,,3.0,5.7,5.9,3.0,,3.0,4.0,540.0,231.0,540.0,231.0,2450.0,,,,,,,,,,
4458,1968,9.0,1.0,ARMENIA:  ZANGEZUR,39.1,46.2,5.0,3.0,,,,,True,,,,,,ARMENIA,40,5.0,39.0,0.0,24.0,,,,,,,8.0,,,,,,,,,,,,,5.0,,,,
9819,1994,5.0,24.0,TAIWAN,23.959,122.448,6.5,,,5428.0,,6.7,True,,,,,,TAIWAN,30,4.0,0.0,42.1,16.0,,,,6.5,6.2,,4.0,,,,,,,,,,,,,,,,,
7383,1498,9.0,20.0,JAPAN:  ENSHUNADA SEA,34.0,138.1,8.3,1.0,,146.0,,8.3,True,5000.0,4.0,3.0,1000.0,3.0,JAPAN,30,,,,,,,,,,,,,,,,,,,,,,,,,,,,
4334,1965,1.0,24.0,INDONESIA:  SANANA ISLAND,-2.4,126.1,7.6,2.0,4.0,1963.0,,7.6,True,71.0,2.0,2.0,3000.0,4.0,INDONESIA,170,0.0,11.0,12.1,6.0,71.0,2.0,,,,,,,,3000.0,,,,,,,,,,,,,,
5153,1987,12.0,17.0,"JAPAN:  HONSHU:  CHIBA PERFECTURE, TOKYO",35.362,140.214,6.0,2.0,,,,,True,2.0,1.0,2.0,,,JAPAN,30,2.0,8.0,19.9,63.0,2.0,1.0,,,6.0,2.0,8.0,,,,66.0,,66.0,,,5.0,5.0,,,,,,,
5925,1787,4.0,3.0,"MEXICO:  SAN MARCOS, OAXACA",15.5,-97.0,7.3,2.0,,545.0,,7.3,True,,,2.0,,,MEXICO,150,15.0,30.0,,,,,,,,,,,,,,,,,,,,,,,,,,
9092,2010,5.0,9.0,INDONESIA:  N. SUMATRA: SIMEULUE ISLAND,3.748,96.018,7.2,1.0,,,,7.3,True,,,1.0,,,INDONESIA,60,5.0,59.0,41.6,38.0,,,,7.2,6.6,,,,,,,,,,,,,,,,,,,
10636,2022,7.0,5.0,RUSSIA:  KEMEROVO,53.75,88.04,4.4,,,,,,True,2.0,1.0,,,,RUSSIA,40,8.0,47.0,26.4,10.0,2.0,1.0,,,4.4,,,,,,,,,,,,,,,,,,,
5137,1987,8.0,2.0,CHINA:  GANZHOU PROVINCE:  XUNWU,24.924,115.608,4.9,3.0,4.0,,,,True,,,3.0,37000.0,4.0,CHINA,30,9.0,7.0,35.5,29.0,,,2.0,,4.9,2.0,4.0,,,37000.0,84.0,,84.0,,,,,,,,,,,
10431,2019,8.0,2.0,INDONESIA:  JAVA:  BANTEN,-7.282,104.791,6.9,2.0,1.0,5870.0,,,True,8.0,1.0,2.0,13.0,1.0,INDONESIA,60,12.0,3.0,27.0,49.0,8.0,1.0,1.0,6.9,,1.0,,3.0,3.0,13.0,8.0,458.0,8.0,458.0,,,,,,,,,,
5798,2004,9.0,5.0,JAPAN:  HONSHU:  W COAST: KYOTO,33.07,136.618,7.2,1.0,,2436.0,,7.0,True,,,1.0,,,JAPAN,30,10.0,7.0,7.8,14.0,,,1.0,7.2,6.7,1.0,,,,,4.0,,4.0,,,,,,,,,,,
4070,1955,4.0,14.0,CHINA:  SICHUAN PROVINCE,30.0,101.8,7.5,2.0,3.0,,,7.5,True,39.0,1.0,2.0,500.0,3.0,CHINA,30,1.0,29.0,2.0,,39.0,1.0,3.0,,,3.0,9.0,,,500.0,113.0,,113.0,,,,,,,,,,,
1859,1844,5.0,13.0,"IRAN:  MIYANEH, GARMRUD, ESFAHAN",37.4,48.0,6.9,4.0,4.0,,,6.9,True,,4.0,4.0,,4.0,IRAN,140,,,,,,4.0,,,,,,,,,,,,,,,,,,,,,,
8052,1962,3.0,18.0,CHINA:  GUANGDONG PROVINCE,23.72,114.67,6.1,3.0,4.0,,,6.1,True,1.0,1.0,3.0,1200.0,4.0,CHINA,30,20.0,18.0,53.0,25.0,1.0,1.0,1.0,,,1.0,8.0,,,1200.0,2.0,,2.0,,,,,,,,,,,
4887,1980,7.0,27.0,KENTUCKY:  MAYSVILLE,38.174,-83.907,5.1,2.0,,,,5.1,True,,,2.0,,,USA,150,18.0,52.0,21.8,8.0,,,1.0,,4.7,1.0,7.0,,,,2.0,,2.0,,,1.0,1.0,KY,,,,,,
7381,1099,2.0,22.0,JAPAN:  NANKAIDO,33.0,135.5,8.4,,,2992.0,,8.4,True,,,1.0,,,JAPAN,30,,,,,,,,,,,,,,,,,,,,,,,,,,,,
8958,1990,12.0,30.0,PAPUA NEW GUINEA:  NEW BRITAIN,-5.097,150.967,7.5,1.0,,,,,True,,,1.0,,,PAPUA NEW GUINEA,170,19.0,14.0,18.9,179.0,,,,7.5,6.6,,,,,,,,,,,,,,,,,,,
10198,2016,9.0,11.0,BALKANS NW:  MACEDONIA,42.008,21.488,5.1,3.0,,,,,True,,,3.0,,,MACEDONIA,130,13.0,10.0,7.0,13.0,,,3.0,5.1,,3.0,6.0,1.0,1.0,,137.0,,137.0,,,10.0,10.0,,,,,,,
10393,2019,2.0,22.0,"ECUADOR: AZUAY, MANABI, MORONA SANT.; PERU",-2.186,-77.051,7.5,2.0,1.0,,,,True,1.0,1.0,2.0,5.0,1.0,ECUADOR,160,10.0,18.0,17.0,145.0,1.0,1.0,1.0,7.5,,1.0,,1.0,1.0,5.0,9.0,75.0,9.0,75.0,,,,,,,,,,
7965,1748,8.0,30.0,CHINA:  SICHUAN PROVINCE,30.4,101.6,6.0,1.0,2.0,,,6.0,True,5.0,1.0,1.0,72.0,2.0,CHINA,30,,,,,5.0,1.0,,,,,7.0,,,72.0,,,,,,,,,,,,,,
5311,1991,11.0,19.0,"COLOMBIA:  CHACO, BUENAVENTURA, CALI",4.554,-77.442,6.4,1.0,,,,6.4,True,2.0,1.0,2.0,,,COLOMBIA,160,22.0,28.0,51.0,21.0,2.0,1.0,,,6.4,,6.0,1.0,1.0,,,28.0,,28.0,,,,,,,,,,
5248,1990,6.0,20.0,"IRAN:  RASHT, QAZVIN, ZANJAN,  RUDBAR, MANJIL",36.957,49.409,7.3,4.0,4.0,5703.0,,7.7,True,40000.0,4.0,4.0,100000.0,4.0,IRAN,140,21.0,0.0,9.9,19.0,40000.0,4.0,4.0,7.3,6.4,4.0,7.0,,,100000.0,105000.0,,105000.0,,,7200.0,7200.0,,,,,,,
5259,1990,9.0,26.0,SOUTH AFRICA:  WELKOM,-28.014,26.727,4.2,1.0,,,,4.2,True,2.0,1.0,1.0,,,SOUTH AFRICA,10,23.0,8.0,23.9,5.0,2.0,1.0,1.0,,5.4,1.0,,,,,5.0,,5.0,,,,,,,,,,,
5146,1987,10.0,4.0,"CALIFORNIA:  WHITTIER, PASADENA",34.07,-118.1,4.8,2.0,,,,4.8,True,1.0,1.0,2.0,,,USA,150,10.0,59.0,38.1,8.0,1.0,1.0,2.0,,5.2,2.0,,,,,,,,,,,,CA,,,,,,
3110,1918,2.0,13.0,CHINA:  GUANGDONG PROVINCE,23.5,117.2,7.3,4.0,4.0,1451.0,,7.3,True,2000.0,4.0,4.0,,4.0,CHINA,30,6.0,7.0,13.0,23.0,2000.0,4.0,4.0,,,4.0,10.0,,,,,,,,,,,,,,,,,
8238,1943,1.0,30.0,ECUADOR:  GUAYAQUIL,-2.1,-80.5,6.9,2.0,,,,6.9,True,,,2.0,,,ECUADOR,160,5.0,33.0,3.0,100.0,,,,,,,6.0,3.0,3.0,,,,,,,,,,,,,,,
5769,2004,3.0,28.0,TURKEY:  ASKALE,39.847,40.874,5.6,1.0,1.0,,,5.3,True,,,1.0,50.0,1.0,TURKEY,140,3.0,51.0,10.0,5.0,,,1.0,5.6,5.3,1.0,,1.0,,50.0,12.0,50.0,12.0,,5.3,,,,,,,,,
8712,2010,1.0,10.0,CALIFORNIA:  OFF COAST NORTHERN,40.652,-124.692,6.5,3.0,,,,6.3,True,,,3.0,,,USA,150,0.0,27.0,39.3,29.0,,,1.0,6.5,6.5,1.0,,,,,30.0,,30.0,,,21.8,21.8,CA,,,,,,
5106,1986,8.0,3.0,"TURKEY:  YESILCE,  UCGOZE, SAM",37.2,37.3,4.1,1.0,2.0,,,4.1,True,,,1.0,73.0,2.0,TURKEY,140,1.0,33.0,20.3,12.0,,,,,5.0,,,,,73.0,,,,,,,,,,,,,,
6450,1976,1.0,21.0,RUSSIA:  KURIL ISLANDS,44.915,149.123,7.0,,,2084.0,,7.0,True,,,,,,RUSSIA,50,10.0,5.0,24.1,41.0,,,,,6.3,,5.0,,,,,,,,,,,,,,,,,
639,1483,2.0,18.0,IRAN:  OFF COAST,24.9,57.9,7.7,,,,,7.7,True,,,,,,IRAN,140,,,,,,,,,,,,,,,,,,,,,,,,,,,,
4854,1979,11.0,14.0,IRAN:  KHORASAN,33.978,59.832,6.6,3.0,3.0,,,6.6,True,171.0,3.0,3.0,216.0,3.0,IRAN,140,2.0,21.0,21.5,33.0,171.0,3.0,,6.6,6.0,,8.0,,,216.0,,,,,,,,,,,,,,
6621,1839,5.0,1.0,"SE. HOKKAIDO ISLAND, JAPAN",42.5,145.0,7.3,1.0,,713.0,,7.3,True,,,1.0,,,JAPAN,30,,,,,,,,,,,,,,,,,,,,,,,,,,,,
4240,1961,3.0,16.0,INDONESIA:  FLORES:  ENDEH,-8.2,122.0,6.5,2.0,,,,6.5,True,2.0,1.0,2.0,,,INDONESIA,60,13.0,45.0,35.6,74.0,2.0,1.0,1.0,,,1.0,8.0,,,,6.0,,6.0,,,,,,,,,,,
10472,1934,3.0,12.0,UTAH,41.7,-112.8,6.6,2.0,,,,6.6,True,2.0,1.0,2.0,,,USA,150,15.0,5.0,40.0,,2.0,1.0,,,,,8.0,1.0,1.0,,,,,,,,,UT,,,,,,
7989,1888,3.0,11.0,CHINA:  QINGHAI PROVINCE,36.5,102.2,5.0,1.0,2.0,,,5.0,True,,1.0,1.0,,2.0,CHINA,30,,,,,,1.0,1.0,,,1.0,6.0,2.0,,,,,,,,,,,,,,,,
10083,2014,4.0,10.0,"NICARAGUA:  NAGAROTE, MANAGUA",12.403,-86.378,6.1,2.0,3.0,,,,True,2.0,1.0,2.0,168.0,3.0,NICARAGUA,100,23.0,27.0,45.6,13.0,2.0,1.0,3.0,6.1,,3.0,6.0,4.0,4.0,168.0,250.0,2210.0,250.0,2210.0,,3.0,3.0,,,,,,,
751,1566,,,COLOMBIA,3.0,-77.3,7.8,,,,,,True,,,,,,COLOMBIA,160,,,0.0,,,,,,,,7.0,,,,,,,,,,,,,7.8,,,,
4860,1979,11.0,27.0,IRAN,33.974,59.847,7.1,3.0,,,,7.5,True,20.0,1.0,3.0,,,IRAN,140,17.0,10.0,35.6,10.0,20.0,1.0,1.0,7.1,6.1,1.0,9.0,,,,23.0,,23.0,,,,,,,,,,,
9884,2012,4.0,17.0,CHILE:  VALPARAISO,-32.625,-71.365,6.7,1.0,,,,6.2,True,2.0,1.0,1.0,,,CHILE,160,3.0,50.0,15.6,29.0,2.0,1.0,,6.7,6.2,,,2.0,2.0,,,,,,,,,,,,,,,
10147,2015,7.0,10.0,SOLOMON ISLANDS,-9.307,158.403,6.7,,,5589.0,,,True,,,,,,SOLOMON ISLANDS,170,4.0,12.0,54.0,12.0,,,,6.7,,,,,,,,,,,,,,,,,,,,
66,138,3.0,1.0,CHINA:  GANSU PROVINCE,35.8,103.5,6.8,3.0,3.0,,,6.8,True,,3.0,3.0,,3.0,CHINA,30,,,,,,3.0,,,,,9.0,,,,,,,,,,,,,,,,,
5972,1649,12.0,9.0,YELLOW SEA,35.5,126.0,6.5,2.0,,268.0,,6.5,True,,,2.0,,,SOUTH KOREA,30,,,,,,,,,,,,,,,,,,,,,,,,,,,,
7421,2006,12.0,8.0,SWITZERLAND:  BASEL,47.58,7.6,3.9,1.0,,,,,True,,,1.0,,,SWITZERLAND,120,16.0,48.0,39.1,5.0,,,,,,,,,,,,,,,3.9,,,,,,,,,
8133,2008,9.0,10.0,IRAN:  HORMOZGAN PROVINCE,26.743,55.828,6.1,3.0,3.0,,,6.0,True,7.0,1.0,3.0,,3.0,IRAN,140,11.0,0.0,34.0,12.0,7.0,1.0,1.0,6.1,6.1,1.0,,3.0,3.0,,45.0,,45.0,,,,,,,,,,,
4790,1978,2.0,15.0,TURKEY,39.69,39.79,4.5,2.0,3.0,,,4.5,True,,,,,,TURKEY,140,3.0,17.0,37.3,33.0,,,1.0,,4.8,,,,,525.0,20.0,,,,,,,,,4.5,,,,
5838,2005,1.0,20.0,NEW ZEALAND:  NORTH ISLAND,-41.223,175.21,5.3,1.0,,,,,True,,,1.0,,,NEW ZEALAND,170,18.0,56.0,30.7,39.0,,,,5.3,5.2,,,,,,,,,,5.5,,,,,,,,,
10307,2018,2.0,25.0,"PAPUA NEW GUINEA: S HIGHLANDS, HELA;  INDONESIA",-6.07,142.754,7.5,4.0,4.0,,,,True,145.0,3.0,4.0,,4.0,PAPUA NEW GUINEA,170,17.0,44.0,14.0,25.0,145.0,3.0,3.0,7.5,,3.0,8.0,4.0,4.0,,300.0,,300.0,,,290.0,290.0,,,,,,,
4454,1968,8.0,14.0,"INDONESIA:  SULAWESI:  TAMBU,COAST OF MAPAGA",0.2,119.8,7.4,,,2007.0,,,True,200.0,3.0,3.0,800.0,3.0,INDONESIA,170,22.0,14.0,19.4,23.0,,,,,,2.0,8.0,,,,,,58.0,,,,,,,7.4,,,,
1042,1667,4.0,6.0,BALKANS NW:  CROATIA: DUBROVNIK:  RAGUSA,42.6,18.1,7.2,4.0,4.0,297.0,,7.2,True,5000.0,4.0,4.0,,4.0,CROATIA,130,7.0,10.0,,,5000.0,4.0,,,,,11.0,,,,,,,,,,,,,,,,,
6286,1923,11.0,2.0,PAPUA NEW GUINEA:   BISMARCK ARCHIPELAGO,-4.653,154.232,7.1,,,1528.0,,7.1,True,,,,,,PAPUA NEW GUINEA,170,21.0,8.0,11.5,145.0,,,,,7.2,,,,,,,,,,,,,,,,,,,
2894,1909,12.0,9.0,GUAM,12.5,145.0,8.0,2.0,,1386.0,,,True,,,2.0,,,USA TERRITORY,170,23.0,28.0,,100.0,,,,,,,8.0,,,,,,,,,,,GU,,8.0,,,,
4658,1974,5.0,10.0,"CHINA:  YUNNAN AND SICHUAN PROVINCES, CHAO-T'UNG",28.24,104.01,7.1,3.0,3.0,,,7.1,True,20000.0,4.0,3.0,,3.0,CHINA,30,19.0,25.0,15.0,11.0,20000.0,4.0,,,6.2,,,,,,,,,,,,,,,,,,,
3050,1916,2.0,1.0,JAPAN:  DUDA,29.5,131.5,8.0,,,,,8.0,True,,,,,,JAPAN,30,7.0,36.0,22.0,33.0,,,,,,,,,,,,,,,,,,,,,,,,
6496,1995,10.0,19.0,JAPAN:  RYUKU IS.,28.094,130.148,6.8,,,2254.0,,6.9,True,,,,,,JAPAN,30,2.0,41.0,36.1,20.0,,,,6.8,6.3,,,,,,,,,,,,,,,,,,,
4494,1969,8.0,11.0,"RUSSIA:  SHIKOTAN ISLAND, KURILSKIYE",43.6,147.9,8.2,2.0,,2015.0,,7.8,True,,,2.0,,,RUSSIA,50,21.0,26.0,36.0,30.0,,,,8.2,,,9.0,,,,,,,,,,,,,8.2,,,,
5542,1999,11.0,11.0,"TURKEY:  ADAPAZARI, KOCEALI, GOLCUK",40.744,30.266,5.7,,,,,5.5,True,2.0,1.0,,,,TURKEY,140,14.0,41.0,25.6,22.0,2.0,1.0,3.0,5.7,5.5,3.0,,,,,171.0,,171.0,,,,,,,,,,,
7283,1983,1.0,17.0,GREECE: IONIAN SEA,38.026,20.228,7.2,,,2917.0,,7.2,True,,,,,,GREECE,130,12.0,41.0,29.7,14.0,,,,,6.1,,,,,,,,,,,,,,,,,,,
5772,2004,4.0,9.0,INDONESIA:  SUMATRA:  PADANG,-1.549,100.54,5.4,1.0,,,,,True,,,1.0,,,INDONESIA,60,1.0,55.0,50.7,66.0,,,,5.4,5.5,,,,1.0,,,,,,,,,,,,,,,
7446,1930,12.0,24.0,ARGENTINA:  LA POMA,-24.7,-66.3,6.0,3.0,3.0,,,6.0,True,39.0,1.0,3.0,,3.0,ARGENTINA,160,6.0,2.0,50.0,30.0,39.0,1.0,3.0,,,3.0,8.0,3.0,,,,,,,,,,,,,,,,
9874,2011,9.0,7.0,INDIA:  DELHI,28.724,77.189,4.3,,,,,,True,,,1.0,,,INDIA,60,17.0,58.0,18.7,10.0,,,1.0,,4.3,1.0,,,,,1.0,,1.0,,,,,,,,,,,
3991,1952,2.0,26.0,PERU-BOLIVIA,-14.1,-69.9,7.5,,,,,,True,,,,,,PERU,160,11.0,31.0,0.0,,,,,,,,,,,,,,,,,,,,,7.5,,,,
9810,744,6.0,30.0,"JAPAN:  SHIMABARA, YATSUSHIRO, HIGO",32.4,130.5,6.4,,,57.0,,6.4,True,1520.0,4.0,2.0,470.0,3.0,JAPAN,30,,,,,,,,,,,,,,,,,,,,,,,,,,,,
122,500,,,KAZAKHSTAN,42.7,76.5,6.7,3.0,,,,,True,,,,,,KAZAKHSTAN,40,,,0.0,20.0,,,,,,,8.0,,,,,,,,,,,,,6.7,,,,
5343,1992,12.0,12.0,"INDONESIA:  FLORES REGION, MAUMERE, BABI",-8.48,121.896,7.8,4.0,4.0,2214.0,,7.5,True,2500.0,4.0,4.0,31785.0,4.0,INDONESIA,60,5.0,29.0,26.3,28.0,1000.0,4.0,3.0,7.8,6.5,4.0,11.0,,,31785.0,500.0,,2103.0,,,100.0,100.0,,,,,,,
5851,2005,3.0,12.0,"TURKEY:  CAT, KARLIOVA",39.44,40.978,5.6,2.0,,,,5.0,True,,,2.0,,,TURKEY,140,7.0,36.0,12.1,11.0,,,1.0,5.6,5.4,1.0,,,,,16.0,,16.0,,5.7,,,,,,,,,
6884,1919,4.0,28.0,EL SALVADOR:  SAN SALVADOR,13.69,-89.19,5.9,3.0,,,,5.9,True,,2.0,3.0,,,EL SALVADOR,100,6.0,45.0,45.0,,,2.0,,,,,,3.0,3.0,,,,,,,,,,,,,,,
3503,1932,9.0,29.0,GREECE:  CHALKIDIKI,40.5,23.8,6.2,,,,,,True,,,,,,GREECE,130,3.0,57.0,0.0,,,,,,,,11.0,,,,,,,,,,,,,6.2,,,,
5625,2002,3.0,5.0,PHILIPPINES:  MINDANAO,6.033,124.249,7.5,2.0,,2394.0,,7.2,True,15.0,1.0,2.0,,,PHILIPPINES,170,21.0,16.0,9.1,31.0,15.0,1.0,2.0,7.5,6.3,2.0,,3.0,3.0,,100.0,800.0,100.0,800.0,,1.714,1.714,,,,,,,
10303,2018,2.0,16.0,MEXICO:  OAXACA,16.386,-97.979,7.2,2.0,,,,,True,14.0,1.0,2.0,,,MEXICO,150,23.0,39.0,28.0,22.0,14.0,1.0,1.0,7.2,,1.0,,3.0,3.0,,19.0,1000.0,19.0,1000.0,,,,,,,,,,
6251,1908,2.0,14.0,ALASKA:  GULF OF ALASKA,61.0,-146.2,6.0,,,1368.0,,6.0,True,,,,,,USA,150,11.0,25.0,,,,,,,,,,,,,,,,,,,,AK,,,,,,
10630,1693,1.0,11.0,"ITALY: SICILY, CALABRIA",37.133,15.017,7.4,4.0,,,,7.4,True,60000.0,4.0,4.0,,,ITALY,130,13.0,30.0,,,60000.0,4.0,,7.4,,,11.0,,,,,,,,,,,,,7.0,,,,
5611,2001,10.0,27.0,CHINA:  YUNNAN PROVINCE:  YONGSHENG,26.316,100.648,5.6,2.0,4.0,,,5.5,True,1.0,1.0,2.0,3400.0,4.0,CHINA,30,5.0,35.0,39.7,10.0,1.0,1.0,3.0,5.6,5.3,3.0,,4.0,,3400.0,220.0,3400.0,220.0,,,,,,,,,,,
146,558,12.0,14.0,TURKEY,40.9,28.8,7.0,,,49.0,,7.0,True,,,,,,TURKEY,140,,,,,,,,,,,9.0,,,,,,,,,,,,,,,,,
658,1501,1.0,19.0,CHINA:  SHAANXI PROVINCE:  CHAOYI,34.8,110.1,7.0,4.0,4.0,,,7.0,True,400.0,3.0,4.0,5400.0,4.0,CHINA,30,,,,,400.0,3.0,,,,,9.0,,,5400.0,,,,,,,,,,,,,,
5729,2003,10.0,15.0,JAPAN:  NEAR S COAST HONSHU:  ATSUGI,35.457,139.871,5.2,1.0,,,,,True,,,1.0,,,JAPAN,30,7.0,30.0,35.9,78.0,,,,5.2,5.0,,,,,,,,,,,,,,,,,,,
9907,1852,1.0,9.0,INDONESIA:  JAVA: DJAKARTA; SUMATRA: TELUKBETUNG,-6.5,105.5,6.5,1.0,,5454.0,,6.5,True,,,1.0,,,INDONESIA,60,,,,150.0,,,,,,,8.0,1.0,1.0,,,,,,,,,,,,,,,
3378,1928,12.0,1.0,"CHILE:  TALCA, CHILLAN, SANTIAGO, SAN FERNANDO",-35.0,-72.0,7.6,3.0,3.0,1609.0,,8.0,True,279.0,3.0,3.0,,3.0,CHILE,160,4.0,6.0,12.0,25.0,279.0,3.0,,7.6,,,9.0,,,,,,,,,,,,,,,,,
8211,2009,1.0,3.0,PAPUA NEW GUINEA:  NEAR NORTH COAST,-0.691,133.305,7.3,,,3649.0,,7.4,True,,,,,,INDONESIA,170,22.0,33.0,40.2,23.0,,,,7.3,6.7,,,,,,,,,,,,,,,,,,,
1088,1680,9.0,9.0,CHINA:  YUNNAN PROVINCE,25.0,101.5,6.8,3.0,3.0,,,6.8,True,2700.0,4.0,3.0,,3.0,CHINA,30,,,,,2700.0,4.0,,,,,9.0,,,,,,,,,,,,,,,,,
3784,1944,9.0,5.0,NEW YORK:  MASSENA,44.957,-74.723,5.6,2.0,,,,5.6,True,,,2.0,,,USA,150,4.0,38.0,45.7,12.0,,,,,,,8.0,,,,,,,,,2.0,2.0,NY,,5.6,,,,
4819,1978,11.0,29.0,MEXICO:  OAXACA,16.01,-96.591,7.7,2.0,,2109.0,,7.7,True,9.0,1.0,2.0,,,MEXICO,150,19.0,52.0,47.6,18.0,9.0,1.0,3.0,,6.4,3.0,,,,,,,,,,,,,,,,,,
2899,1910,1.0,8.0,CHINA:  YELLOW SEA,35.0,122.0,6.8,2.0,3.0,,,6.8,True,,,2.0,,3.0,CHINA,30,14.0,49.0,30.0,,,,,,,,,,,,,,,,,,,,,,,,,
4570,1971,6.0,17.0,"CHILE:  CATALINA, ANTOFAGASTA",-25.5,-69.2,6.3,2.0,,,,,True,1.0,1.0,2.0,,,CHILE,160,21.0,,40.9,93.0,1.0,1.0,,,6.3,,5.0,,,,,,,,,,,,,7.0,,,,
10573,2012,3.0,8.0,CHINA: XINJIANG,39.383,81.307,5.9,4.0,,,,5.6,True,,,4.0,,,CHINA,40,22.0,50.0,8.4,38.0,,,4.0,5.9,5.8,4.0,,3.0,3.0,,36641.0,,36641.0,,,84.0,84.0,,,,,,,
6257,1912,6.0,8.0,"SANRIKU, JAPAN",40.5,142.0,6.6,1.0,,1401.0,,6.6,True,,,1.0,,,JAPAN,30,4.0,42.0,,100.0,,,,,,,,,,,,,,,,,,,,,,,,
6028,1757,8.0,24.0,INDONESIA:  JAKARTA,-6.0,107.0,7.5,,,465.0,,7.5,True,,,,,,INDONESIA,60,,,,,,,,,,,,,,,,,,,,,,,,,,,,
5071,1985,8.0,21.0,PERU:  COAST:  CHIMBOTE,-9.159,-78.887,6.1,2.0,2.0,,,,True,,,2.0,60.0,2.0,PERU,160,11.0,26.0,28.7,57.0,,,2.0,,6.1,2.0,,,,60.0,100.0,,100.0,,,,,,,,,,,
8472,2009,8.0,16.0,INDONESIA:  SUMATRA:  PADANG,-1.479,99.49,6.7,,,4482.0,,6.7,True,,,,,,INDONESIA,60,7.0,38.0,21.7,20.0,,,1.0,6.7,6.5,1.0,,,,,9.0,,9.0,,,,,,,,,,,
5092,1986,4.0,5.0,PERU:  CUZCO,-13.41,-71.785,4.6,3.0,4.0,,,4.6,True,16.0,1.0,3.0,2000.0,4.0,PERU,160,20.0,14.0,28.7,51.0,16.0,1.0,3.0,,5.3,3.0,6.0,,,2000.0,170.0,,170.0,,,22.0,22.0,,,,,,,
325,1036,7.0,,NORTH KOREA:  KAESONG,37.6,126.3,5.7,2.0,,,,,True,,,,,,NORTH KOREA,30,,,,,,,,,,,7.0,,,,,,,,,,,,,5.7,,,,
5304,1991,8.0,17.0,"CALIFORNIA:  HONEYDEW, WHITETHORN, PETROLIA",40.235,-124.348,6.2,2.0,,,,6.2,True,,,2.0,,,USA,150,19.0,29.0,40.0,12.0,,,,,6.0,,7.0,,,,,,,,,,,CA,,,,,,
491,1291,8.0,25.0,CHINA:  SHAANXI PROVINCE,36.1,111.5,6.5,3.0,,,,6.5,True,150.0,3.0,,,,CHINA,30,,,,,150.0,3.0,,,,,8.0,,,,,,,,,,,,,,,,,
6615,1873,,,PAPUA NEW GUINEA:  MACLAY COAST,-5.5,146.0,8.0,2.0,2.0,1049.0,,8.0,True,,2.0,2.0,,2.0,PAPUA NEW GUINEA,170,,,,,,2.0,,,,,9.0,,,,,,,,,,,,,,,,,
4702,1975,10.0,11.0,TONGA ISLANDS:  S OF TONGA,-24.894,-175.119,7.8,,,,,7.8,True,,,,,,TONGA,170,14.0,35.0,15.0,9.0,,,,,7.0,,,,,,,,,,,,,,,,,,,
10005,2013,7.0,2.0,INDONESIA:  BANDA ACEH,4.645,96.665,6.1,4.0,4.0,,,6.2,True,48.0,1.0,4.0,20401.0,4.0,INDONESIA,60,7.0,37.0,2.6,13.0,48.0,1.0,4.0,6.1,5.9,4.0,,,,20401.0,2532.0,,2532.0,,,113.0,113.0,,,,,,,
5024,1984,2.0,7.0,SOLOMON ISLANDS:  GUADALCANAL,-10.012,160.469,7.5,2.0,,,,7.5,True,,,2.0,,,SOLOMON ISLANDS,170,21.0,33.0,21.4,18.0,,,,,6.6,,6.0,,,,,,,,,,,,,,,,,
9941,2012,10.0,28.0,CANADA:  QUEEN CHARLOTTE ISLANDS,52.788,-132.101,7.7,1.0,,5467.0,,7.5,True,1.0,1.0,1.0,,,CANADA,150,3.0,4.0,8.9,14.0,,,,7.7,6.5,,,1.0,1.0,,,,,,,,,,,,,,,
8377,2009,8.0,10.0,JAPAN:  HONSHU:  S COAST,34.743,138.264,6.4,3.0,,4418.0,,,True,1.0,1.0,3.0,,,JAPAN,30,20.0,7.0,9.1,40.0,1.0,1.0,3.0,6.4,6.1,3.0,,4.0,4.0,,123.0,5192.0,123.0,5192.0,,,,,,,,,,
6232,1900,9.0,10.0,PAPUA NEW GUINEA:  BISMARCK SEA,-4.0,152.0,6.8,1.0,,1272.0,,6.8,True,,,1.0,,,PAPUA NEW GUINEA,170,21.0,30.0,,,,,,,,,,1.0,1.0,,,,,,,,,,,,,,,
3855,1947,7.0,14.0,COLOMBIA:  PASTO,1.3,-77.23,6.0,2.0,3.0,,,5.5,True,2.0,1.0,2.0,,3.0,COLOMBIA,160,6.0,59.0,28.0,10.0,2.0,1.0,1.0,6.0,,1.0,8.0,,,,,,,,,,,,,,,,,
7231,2006,3.0,20.0,ALGERIA:  NORTHERN,36.623,5.328,4.9,,2.0,,,4.9,True,4.0,1.0,,62.0,2.0,ALGERIA,15,19.0,44.0,25.1,10.0,4.0,1.0,1.0,,5.0,1.0,,2.0,,62.0,9.0,62.0,9.0,,,,,,,,,,,
6547,1964,5.0,7.0,JAPAN:  NW. HONSHU ISLAND,40.3,139.0,6.9,2.0,1.0,1957.0,,6.9,True,,,2.0,2.0,1.0,JAPAN,30,7.0,58.0,14.3,30.0,,,,,,,,,,2.0,,,,,,,,,,,,,,
6422,1968,1.0,29.0,RUSSIA:  KURIL ISLANDS,43.586,146.701,7.3,,,1996.0,,7.3,True,,,,,,RUSSIA,50,10.0,19.0,7.2,40.0,,,,7.3,,,,,,,,,,,,,,,,,,,,
2744,1906,1.0,21.0,JAPAN:  NEAR S COAST HONSHU,34.0,138.0,8.4,,,,,8.4,True,,,,,,JAPAN,30,13.0,49.0,35.0,340.0,,,,,,,,,,,,,,,,,,,,,,,,
10401,1810,8.0,27.0,MEXICO:  BAJA CALIFORNIA: LORETO,26.0,-111.35,7.4,2.0,1.0,5702.0,,,True,,,2.0,,1.0,MEXICO,150,,,,,,,,7.4,,,9.0,1.0,1.0,,,,,,,,,,,,,,,
7873,2008,2.0,29.0,BRAZIL:  SOBRAL,-3.7,-40.35,4.3,1.0,,,,,True,,,1.0,,,BRAZIL,160,4.0,46.0,0.0,10.0,,,,,4.3,,,,,,,,,,,,,,,,,,,
7537,2007,8.0,15.0,"PERU:  ICA, PISCO, LIMA",-13.386,-76.603,8.0,4.0,4.0,3168.0,,7.9,True,514.0,3.0,4.0,52154.0,4.0,PERU,160,23.0,40.0,57.8,39.0,514.0,3.0,4.0,8.0,6.7,4.0,8.0,4.0,4.0,52154.0,1090.0,23632.0,1090.0,23632.0,,,,,,,,,,
5388,1994,6.0,9.0,"BOLIVIA-PERU: AREQUIPA, FELT IN N AND S AMERICA",-13.841,-67.553,8.2,2.0,,,,,True,5.0,1.0,2.0,,,BOLIVIA,160,0.0,33.0,16.2,631.0,5.0,1.0,3.0,8.2,7.0,3.0,,,,,,,,,,,,,,,,,,
4195,1959,6.0,14.0,BOLIVIA-NORTHERN CHILE,-20.369,-68.0,7.5,1.0,,,,7.5,True,1.0,1.0,1.0,,,BOLIVIA,160,0.0,12.0,6.5,112.0,1.0,1.0,,,,,,,,,,,,,,,,,,,,,,
9890,2011,11.0,21.0,INDIA:  ASSAM,24.955,95.236,5.8,1.0,,,,,True,,,1.0,,,INDIA,60,3.0,15.0,42.2,114.0,,,,5.8,5.9,,,,,,,,,,,,,,,,,,,
10599,2022,1.0,17.0,AFGHANISTAN: BADGHIS: QADIS,34.946,63.58,5.3,3.0,3.0,,,,True,28.0,1.0,3.0,800.0,3.0,AFGHANISTAN,40,11.0,40.0,8.0,18.0,28.0,1.0,1.0,5.3,,1.0,8.0,,,800.0,4.0,,4.0,,,,,,,,,,,
3091,1917,7.0,31.0,CHINA:  JILIN PROVINCE,42.5,131.0,7.5,,,,,7.5,True,,,,,,CHINA,30,3.0,23.0,10.0,460.0,,,,,,,,,,,,,,,,,,,,,,,,
10524,2021,1.0,14.0,"INDONESIA:  SULAWESI:  MAMUJU, MAJENE",-2.976,118.901,6.2,4.0,4.0,,,,True,105.0,3.0,4.0,1150.0,4.0,INDONESIA,170,18.0,28.0,18.0,18.0,105.0,3.0,4.0,6.2,,4.0,9.0,4.0,4.0,1150.0,6489.0,7863.0,6489.0,7863.0,,58.7,58.7,,1.0,,3.0,1.0,3.0,
6119,1854,8.0,7.0,COSTA RICA-PANAMA,8.5,-83.0,7.2,,,825.0,,7.2,True,,,,,,COSTA RICA,100,,,,,,,,,,,,,,,,,,,,,,,,,,,,
10692,2023,5.0,5.0,"JAPAN: HONSHU: ISHIKAWA, TOYAMA",37.54,137.305,6.2,2.0,1.0,5880.0,,,True,1.0,1.0,2.0,3.0,1.0,JAPAN,30,5.0,42.0,4.0,8.0,1.0,1.0,1.0,6.2,,1.0,8.0,3.0,3.0,3.0,34.0,351.0,34.0,351.0,,,,,,,,,,
2966,1912,11.0,19.0,"MEXICO:  CENTRAL, ACAMBAY, TIXMADEJE",19.9,-99.8,7.8,3.0,,,,,True,,,,,,MEXICO,150,13.0,18.0,0.0,,,,,,,,,,,,,,,,,,,,,7.8,,,,
6561,1859,7.0,29.0,INDONESIA:  SULAWESI,0.009,125.5,7.3,,,882.0,,7.3,True,,,2.0,,2.0,INDONESIA,170,,,,,,,,,,,,,,,,,,,,,,,,,,,,
10097,2014,5.0,30.0,CHINA:  YUNNAN PROVINCE:  YINGJIANG,25.0,97.845,5.9,2.0,4.0,,,,True,,,2.0,3390.0,4.0,CHINA,30,1.0,20.0,15.2,10.0,,,1.0,5.9,,1.0,,4.0,4.0,3390.0,45.0,18000.0,45.0,18000.0,,2.0,2.0,,,,,,,
5202,1989,6.0,25.0,"ECUADOR:  ESMERALDAS, GUAYAQUIL",1.134,-79.616,6.1,2.0,,,,6.1,True,,,,,,ECUADOR,160,20.0,37.0,32.4,15.0,,,,,5.9,,7.0,,,,,,,,,,,,,,,,,
7078,2006,5.0,3.0,TONGA ISLANDS,-20.187,-174.123,7.9,1.0,,2749.0,,7.8,True,,,1.0,,,TONGA,170,15.0,26.0,40.2,55.0,,,1.0,7.9,7.2,1.0,7.0,,,,1.0,,1.0,,,,,,,,,,,
5402,1995,1.0,19.0,"COLOMBIA:  BOGOTA, MANIZALES, MIRAFLORES",5.05,-72.916,6.5,2.0,3.0,,,6.6,True,7.0,1.0,2.0,512.0,3.0,COLOMBIA,160,15.0,5.0,3.4,17.0,7.0,1.0,2.0,6.5,6.3,2.0,,1.0,1.0,512.0,,20.0,,20.0,,,,,,,,,,
5227,1990,3.0,26.0,PHILIPPINES:  SANTIAGO,9.253,125.606,5.5,1.0,,,,5.5,True,1.0,1.0,1.0,,,PHILIPPINES,170,22.0,47.0,16.7,39.0,1.0,1.0,1.0,,5.6,1.0,4.0,,,,2.0,,2.0,,,,,,,,,,,
1803,1837,11.0,22.0,MEXICO:  GUADALAJARA,20.0,-105.0,7.5,,,,,7.5,True,,,,,,MEXICO,150,,,,,,,,,,,,,,,,,,,,,,,,,,,,
2700,1904,12.0,20.0,PANAMA:  BOCAS DEL TORO,9.2,-82.8,7.2,,,5573.0,,7.3,True,,,,,,PANAMA,100,5.0,44.0,18.0,60.0,,,,7.2,,,,,,,,,,,,,,,,,,,,
5458,1997,4.0,21.0,SOLOMON ISLANDS:  SANTA CRUZ ISLANDS; VANUATU,-12.584,166.676,7.7,1.0,,2273.0,,7.9,True,,,1.0,7.0,1.0,SOLOMON ISLANDS,170,12.0,2.0,26.4,33.0,,,,7.7,6.4,,,,,,,,,,,,,,,,,,,
5804,2004,10.0,7.0,IRAN:  GOLESTAN,37.125,54.477,5.6,,,,,5.4,True,,,,,,IRAN,140,21.0,46.0,20.3,35.0,,,2.0,5.6,5.6,2.0,,,,,60.0,,60.0,,,,,,,,,,,
8189,1880,3.0,28.0,TURKEY:  HELEDDI,42.0,35.2,5.5,2.0,2.0,,,5.5,True,,,2.0,60.0,2.0,TURKEY,140,,,,,,,,,,,9.0,2.0,,60.0,,60.0,,,,,,,,,,,,
3284,1926,4.0,12.0,SOLOMON ISLANDS,-10.0,161.0,7.5,,,,,,True,,,,,,SOLOMON ISLANDS,170,8.0,32.0,0.0,60.0,,,,,,,,,,,,,,,,,,,,7.5,,,,
5235,1990,5.0,5.0,ITALY:  POTENZA,40.775,15.766,5.4,2.0,,,,5.4,True,2.0,1.0,2.0,,,ITALY,130,7.0,21.0,29.5,10.0,2.0,1.0,1.0,,5.3,1.0,7.0,,,,16.0,,16.0,,,,,,,,,,,
10388,2019,1.0,20.0,"CHILE:  COQUIMBO, LA SERENA",-30.04,-71.382,6.7,2.0,,,,,True,2.0,1.0,2.0,,,CHILE,160,1.0,32.0,48.0,63.0,2.0,1.0,,6.7,,,,4.0,4.0,,,1061.0,,1061.0,,,,,,,,,,
7866,1907,4.0,18.0,PHILIPPINES:  SE LUZON:  CAMARINES,13.5,123.0,7.4,1.0,,,,7.4,True,,,1.0,,,PHILIPPINES,170,23.0,52.0,4.0,,,,,,,,7.0,,,,,,,,,,,,,,,,,
4556,1971,2.0,6.0,ITALY:  TUSCANIA,42.5,11.8,4.6,4.0,1.0,,,,True,24.0,1.0,4.0,40.0,1.0,ITALY,130,18.0,9.0,9.1,33.0,24.0,1.0,3.0,,4.6,3.0,8.0,4.0,4.0,40.0,150.0,1678.0,150.0,1678.0,,41.0,41.0,,,,,,,
5059,1985,3.0,16.0,GUADELOUPE,17.013,-62.448,6.4,1.0,,2159.0,,6.3,True,,,1.0,,,GUADELOUPE,90,14.0,54.0,0.7,13.0,,,1.0,6.4,6.3,1.0,6.0,,,,6.0,,6.0,,,,,,,,,,,
2198,1872,4.0,3.0,"TURKEY:  ANTAKYA (ANTIOCH), SUEDIJE",36.2,36.2,7.3,3.0,3.0,5821.0,,7.3,True,1800.0,4.0,3.0,,3.0,TURKEY,140,5.0,45.0,,,1800.0,4.0,,,,,10.0,3.0,3.0,,,,,,,,,,,,,,,
8574,2009,10.0,22.0,AFGHANISTAN:  HINDU KUSH,36.517,70.95,6.1,1.0,,,,,True,5.0,1.0,1.0,,,AFGHANISTAN,40,19.0,51.0,27.5,18.0,5.0,1.0,,6.1,6.1,,,,,,,,,,,,,,,,,,,
5774,2004,4.0,16.0,INDONESIA:  BALI,-8.669,114.65,5.5,1.0,,,,,True,,,1.0,,,INDONESIA,60,18.0,32.0,24.0,96.0,,,,5.5,5.5,,,1.0,1.0,,,,,,,,,,,,,,,
10650,2022,10.0,5.0,PERU:  PIURA,-4.912,-80.56,5.8,,,,,,True,1.0,1.0,,,,PERU,160,8.0,26.0,21.0,48.0,1.0,1.0,1.0,5.8,,1.0,8.0,,,,2.0,,2.0,,,,,,,,,,,
3191,1922,2.0,27.0,"PHILIPPINES:  CEBU ISLAND, MACTAN ISLAND",10.2,124.1,6.3,2.0,,1498.0,,6.3,True,5.0,1.0,2.0,,,PHILIPPINES,170,20.0,39.0,50.0,,5.0,1.0,,,,,5.0,2.0,2.0,,,,,,,,,,,,,,,
9352,1901,10.0,8.0,NICARAGUA,11.0,-86.5,7.0,1.0,,5162.0,,7.0,True,,,1.0,,,NICARAGUA,100,2.0,16.0,,,,,,,,,,,,,,,,,,,,,,,,,,
6769,2005,8.0,13.0,CHINA:  YUNNAN PROVINCE:  WENSHAN,23.627,104.103,4.5,1.0,2.0,,,4.5,True,,,1.0,,2.0,CHINA,30,4.0,58.0,44.8,10.0,,,1.0,,4.8,1.0,,2.0,,,26.0,,26.0,,,,,,,,,,,
6640,2005,1.0,19.0,JAPAN:  EAST COAST HONSHU,34.064,141.491,6.6,,,2466.0,,6.4,True,,,,,,JAPAN,30,6.0,11.0,36.4,28.0,,,,6.6,5.8,,,,,,,,,,,,,,,,,,,
6937,1871,2.0,20.0,HAWAIIAN ISLANDS,20.7,-157.0,7.0,2.0,,1019.0,,7.0,True,,,2.0,,,USA,150,8.0,41.0,,,,,,,,,,2.0,2.0,,,,,,,,,HI,,,,,,
5557,2000,5.0,4.0,"INDONESIA:  SULAWESI:  LUWUK, BANGGAI, PELENG,",-1.105,123.573,7.6,4.0,4.0,2338.0,,7.5,True,54.0,2.0,4.0,23000.0,4.0,INDONESIA,170,4.0,21.0,16.2,26.0,54.0,2.0,3.0,7.6,6.7,3.0,,,,23000.0,264.0,,264.0,,,30.0,30.0,,,,,,,
10491,2020,5.0,7.0,"IRAN:  TEHRAN, DAMAVAND",35.725,52.044,4.6,,,,,,True,2.0,1.0,,,,IRAN,140,20.0,18.0,22.0,10.0,2.0,1.0,1.0,,4.6,1.0,,,,,22.0,,22.0,,,,,,,,,,,
6770,2005,8.0,14.0,CHILE:  TARAPACA,-19.78,-68.98,5.8,1.0,,,,,True,,,1.0,,,CHILE,160,2.0,39.0,40.3,11.0,,,,5.8,5.7,,,,,,,,,,,,,,,,,,,
5436,1996,3.0,19.0,"CHINA:  S. XINJIANG:   ARTUX, JIASHI, BACHU, KASHI",39.993,76.696,6.3,3.0,4.0,,,6.0,True,24.0,1.0,3.0,15314.0,4.0,CHINA,40,15.0,0.0,26.0,28.0,24.0,1.0,3.0,6.3,5.7,3.0,,,,15314.0,128.0,,128.0,,,24.0,24.0,,,,,,,
5107,1986,8.0,30.0,"ROMANIA:  BUCHAREST, KISHINEV-KAGUL",45.547,26.316,6.9,4.0,,,,6.9,True,2.0,1.0,4.0,,,ROMANIA,110,21.0,28.0,35.4,132.0,2.0,1.0,3.0,,6.4,3.0,8.0,4.0,4.0,,558.0,55000.0,558.0,55000.0,,730.0,730.0,,,,,,,
2762,1906,3.0,16.0,TAIWAN:  JIAYI,23.6,120.5,6.8,3.0,4.0,,,6.8,True,1258.0,4.0,3.0,6769.0,4.0,TAIWAN,30,22.0,42.0,40.0,,1258.0,4.0,3.0,,,3.0,,,,6769.0,145.0,,145.0,,,,,,,,,,,
458,1233,,,ITALY:  VENEZIA (VENICE),45.3,12.2,5.6,3.0,,,,,True,,,,,,ITALY,130,,,,,,,,,,,,,,,,,,,,,,,,5.6,,,,
10189,2016,7.0,31.0,INDONESIA:  SUMBAWA ISLAND:  WEST NUSA TENGGARA,-8.194,117.814,5.6,2.0,,,,,True,,,2.0,,,INDONESIA,60,23.0,41.0,28.0,21.0,,,1.0,5.6,,1.0,6.0,3.0,3.0,,4.0,700.0,4.0,700.0,,,,,,,,,,
7726,2007,12.0,26.0,TURKEY:  CENTRAL:  ANKARA,39.446,33.162,5.6,3.0,4.0,,,5.5,True,,,3.0,2214.0,4.0,TURKEY,140,23.0,47.0,10.7,8.0,,,,5.6,5.2,,,4.0,,2214.0,,2214.0,,,5.5,,,,,,,,,
5957,1586,1.0,18.0,JAPAN:  ISE BAY,35.0,136.8,8.2,3.0,4.0,191.0,,8.2,True,8000.0,4.0,3.0,10000.0,4.0,JAPAN,30,,,,,8000.0,4.0,,,,,,,,10000.0,,,,,,,,,,,,,,
2157,1869,8.0,24.0,"CHILE:  IQUIQUE, PICA; PERU:  TACNA",-19.6,-70.23,7.5,1.0,,1010.0,,7.5,True,,,1.0,,,CHILE,160,17.0,10.0,,30.0,,,,,,,8.0,,,,,,,,,,,,,,,,,
4636,1973,4.0,24.0,"COLOMBIA; SAN CRISTOBAL, VENEZUELA",4.956,-78.144,6.5,2.0,,,,6.5,True,1.0,1.0,2.0,,,COLOMBIA,160,21.0,30.0,9.9,50.0,1.0,1.0,,,6.3,,,,,,,,,,,,,,,,,,,
5517,1999,3.0,4.0,IRAN:  SOUTHERN:  KERMAN,28.343,57.193,6.6,2.0,,,,6.5,True,1.0,1.0,2.0,,,IRAN,140,5.0,38.0,26.5,33.0,1.0,1.0,,6.6,6.2,,,3.0,3.0,,,517.0,,517.0,,,,,,,,,,
10350,2015,12.0,17.0,MEXICO:  COCOTITLAN,15.802,-93.633,6.6,,,,,,True,2.0,1.0,,,,MEXICO,150,19.0,49.0,5.0,85.0,2.0,1.0,,6.6,,,5.0,,,,,,,,,,,,,,,,,
6268,1917,5.0,6.0,TAIWAN,23.2,121.6,5.8,,,1445.0,,5.8,True,,,,,,TAIWAN,30,12.0,19.0,,33.0,,,,,,,,,,,,,,,,,,,,,,,,
6977,1856,2.0,15.0,CALIFORNIA:  NORTHERN,37.5,-122.3,5.5,,,856.0,,,True,,,1.0,,,USA,150,13.0,25.0,,,,,,,,,7.0,,,,,,,,5.5,,,CA,,,,,,
2224,1875,5.0,3.0,"TURKEY:  CAPALI, DINAR, CIVRIL, YAKA",38.1,30.2,7.3,4.0,4.0,,,7.3,True,1300.0,4.0,4.0,1000.0,4.0,TURKEY,140,,,,,1300.0,4.0,,,,,10.0,,,1000.0,,,,,,,,,,,,,,
2768,1906,4.0,18.0,CALIFORNIA:  SAN FRANCISCO,37.67,-122.48,7.9,4.0,4.0,1333.0,,7.8,True,,,,,,USA,150,13.0,12.0,21.0,20.0,700.0,3.0,,7.9,,,11.0,,,28188.0,,,,,,400.0,,CA,,8.3,,,,
776,1582,1.0,22.0,"PERU:  SOCABAYA,AREQUIPA",-16.6,-71.6,8.2,3.0,4.0,3681.0,,8.2,True,,3.0,3.0,,4.0,PERU,160,16.0,30.0,,30.0,,3.0,3.0,,,3.0,10.0,,,,,,,,,,,,,,,,,
1360,1759,10.0,30.0,ISRAEL:  ZEFAT (SAFED),33.0,35.5,6.4,2.0,,466.0,,6.4,True,,,2.0,,,ISRAEL,140,,,,,,,,,,,,,,,,,,,,,,,,,,,,
10551,2021,6.0,16.0,INDONESIA: MALUKU,-3.593,129.503,5.8,1.0,,5788.0,,,True,,,1.0,,,INDONESIA,170,4.0,43.0,7.0,10.0,,,,5.8,,,6.0,1.0,1.0,,,,,,,,,,,,,,,
10695,2023,5.0,20.0,NEW CALEDONIA:  LOYALTY ISLANDS,-23.062,170.456,7.1,,,5882.0,,,True,,,,,,NEW CALEDONIA,170,1.0,51.0,1.0,36.0,,,,7.1,,,,,,,,,,,,,,,,,,,,
2318,1882,12.0,2.0,CHINA:  HEBEI PROVINCE,38.1,115.5,5.8,3.0,3.0,,,5.8,True,11.0,1.0,3.0,,3.0,CHINA,30,,,,,11.0,1.0,,,,,8.0,,,,,,,,,,,,,,,,,
5268,1990,12.0,13.0,ITALY:  SICILY:  CARLENTINI,37.3,15.438,5.3,4.0,,2197.0,,5.3,True,19.0,1.0,4.0,,,ITALY,130,0.0,24.0,25.7,11.0,19.0,1.0,3.0,,5.5,3.0,7.0,,,,200.0,,200.0,,,500.0,500.0,,,,,,,
4060,1954,12.0,16.0,NEVADA:  DIXIE VALLEY,39.3,-118.2,7.0,,,,,,True,,,,,,USA,150,11.0,7.0,0.0,,,,,,,,10.0,,,,,,,,,,,NV,,7.0,,,,
5790,2004,7.0,14.0,AFGHANISTAN: HERAT,34.89,61.852,4.6,2.0,,,,,True,,,2.0,,,AFGHANISTAN,40,14.0,36.0,2.5,,,,,,4.6,,,,3.0,,,,,150.0,,,,,,,,,,
5958,1597,9.0,10.0,JAPAN:  BEPPU BAY,33.3,131.6,6.4,,,204.0,,6.4,True,40.0,1.0,,,,JAPAN,30,,,,,,,,,,,,,,,,,,,,,,,,,,,,
3907,1949,7.0,23.0,"GREECE:  CHIOS, OENOUSSAE; TURKEY: KARABURUN",38.718,26.482,6.5,3.0,3.0,1787.0,,6.7,True,7.0,1.0,4.0,534.0,3.0,GREECE,130,15.0,3.0,35.5,15.0,7.0,1.0,3.0,6.5,,3.0,9.0,4.0,4.0,534.0,435.0,5501.0,435.0,5501.0,,,,,,,,,,
3954,1950,10.0,5.0,COSTA RICA-NICARAGUA,11.0,-85.0,7.7,1.0,,1808.0,,7.7,True,,,1.0,,,COSTA RICA,100,16.0,9.0,31.0,60.0,,,3.0,,,3.0,,,,,,,,,,,,,,,,,,
8031,1952,6.0,19.0,CHINA:  YUNNAN PROVINCE,22.7,99.8,6.5,1.0,1.0,,,6.5,True,,,1.0,10.0,1.0,CHINA,30,12.0,12.0,59.0,,,,,,,,8.0,,,10.0,,,,,,,,,,,,,,
10569,1915,9.0,23.0,ERITREA: ASMARA,14.482,38.581,6.2,2.0,,,,6.8,True,,,2.0,,,ERITREA,10,8.0,14.0,46.5,,,,,6.2,,,,,,,,,,,,,,,,,,,,
4582,1971,9.0,5.0,"RUSSIA:  SAKHALIN, MONERON ISLAND",46.5,141.2,7.1,1.0,,2431.0,,7.1,True,,,1.0,,,RUSSIA,50,18.0,35.0,25.0,9.0,,,,,6.3,,9.0,,1.0,,,,,,,,,,,,,,,
3977,1951,8.0,13.0,TURKEY:  KURSUNLU,40.8,33.4,6.7,3.0,,,,,True,,,,,,TURKEY,140,18.0,33.0,0.0,,50.0,1.0,,,,,9.0,,,,,,,,,,,,,6.7,,,,
6246,1907,3.0,29.0,INDONESIA:  TALAUD ISLANDS:  KARAKELONG ISLAND,3.0,122.0,7.3,,,1351.0,,7.3,True,,,,,,INDONESIA,170,20.0,46.0,30.0,500.0,,,,,,,,,,,,,,,,,,,,,,,,
5100,1986,7.0,8.0,CALIFORNIA:  PALM SPRINGS,34.0,-116.61,6.0,2.0,,,,6.0,True,,,2.0,,,USA,150,9.0,20.0,44.5,12.0,,,1.0,,5.8,1.0,7.0,,,,29.0,,29.0,,,4.5,4.5,CA,,,,,,
4726,1976,5.0,29.0,CHINA:  YUNNAN PROVINCE:  LUNGLING-LUSHI,24.531,98.71,7.4,3.0,,,,7.4,True,,2.0,3.0,,,CHINA,30,14.0,0.0,18.5,10.0,,2.0,,,6.0,,9.0,,,,,,,,,,,,,,,,,
10108,1994,6.0,4.0,INDONESIA:  JAVA,-10.777,113.366,6.5,,,5576.0,,6.3,True,,,,,,INDONESIA,60,0.0,57.0,50.6,11.0,,,,6.5,6.0,,,,,,,,,,,,,,,,,,,
4932,1981,10.0,25.0,MEXICO:  MICHOACAN: LAZARO CARDENAS,18.048,-102.084,7.3,2.0,,2132.0,,7.3,True,3.0,1.0,2.0,,,MEXICO,150,3.0,22.0,15.5,33.0,3.0,1.0,,,6.2,1.0,,2.0,2.0,,28.0,,28.0,,,,,,,,,,,
6146,1861,10.0,20.0,JAPAN:  HONSHU:  MIYAGI PREFECTURE,38.5,142.0,7.4,2.0,2.0,915.0,,7.4,True,,,2.0,70.0,2.0,JAPAN,30,17.0,30.0,,,,,,,,,,,,70.0,,,,,,,,,,,,,,
5947,1448,9.0,19.0,JAPAN:  SADO,37.5,138.2,7.0,,,136.0,,7.0,True,,,2.0,,,JAPAN,30,,,,,,,,,,,,,,,,,,,,,,,,,,,,
5501,1998,7.0,17.0,PAPUA NEW GUINEA:  SISSANO,-2.943,142.582,7.0,,,2281.0,,7.1,True,1636.0,4.0,3.0,,3.0,PAPUA NEW GUINEA,170,8.0,49.0,16.1,25.0,,,,7.0,5.8,3.0,,,,,,,1000.0,,,,,,,,,,,
5207,1989,8.0,1.0,"INDONESIA:  KURIMA DISTRICT, BALIEM RIVER",-4.511,139.022,5.8,2.0,,,,5.8,True,120.0,3.0,2.0,,,INDONESIA,170,0.0,18.0,4.8,14.0,120.0,3.0,3.0,,6.0,3.0,,,,,125.0,,125.0,,,1.0,1.0,,,,,,,
4099,1956,6.0,9.0,AFGHANISTAN:  KABUL,35.1,67.5,7.6,,,,,,True,,,,,,AFGHANISTAN,40,,,0.0,60.0,100.0,2.0,,,,,,,,,,,,,,,,,,7.6,,,,
5199,1989,5.0,27.0,"IRAN:  DO GOBADAN, FARS, YASUJ",30.167,50.921,5.8,2.0,,,,5.8,True,114.0,3.0,2.0,,,IRAN,140,20.0,8.0,37.3,31.0,114.0,3.0,,,5.6,,,,,,,,,,,5.0,5.0,,,,,,,
1207,1717,5.0,13.0,JAPAN:  HANAMAKI,39.0,142.7,7.6,,,,,,True,,,,,,JAPAN,30,,,0.0,,,,,,,,,,,,,,,,,,,,,7.6,,,,
1480,1785,4.0,18.0,CHINA:  GANSU PROVINCE:  HUIHUIPU,39.9,98.0,6.0,2.0,2.0,,,6.0,True,36.0,1.0,2.0,,2.0,CHINA,30,,,,,36.0,1.0,,,,,8.0,,,,,,,,,,,,,,,,,
2794,1906,12.0,22.0,CHINA:  XINJIANG PROVINCE,43.5,85.0,8.3,3.0,4.0,,,8.3,True,280.0,3.0,3.0,2000.0,4.0,CHINA,40,18.0,21.0,,33.0,280.0,3.0,,,,,9.0,,,2000.0,,,,,,,,,,,,,,
5602,2001,6.0,25.0,TURKEY:  OSMANIYE,37.238,36.206,5.5,1.0,,,,4.9,True,,,1.0,,,TURKEY,140,13.0,28.0,46.5,5.0,,,3.0,5.5,5.2,3.0,,,2.0,,130.0,,130.0,66.0,,,,,,,,,,
6778,2005,10.0,8.0,"PAKISTAN:  MUZAFFARABAD, URI, ANANTNAG, BARAMULA",34.451,73.649,7.6,4.0,3.0,,,7.7,True,76213.0,4.0,4.0,,3.0,PAKISTAN,60,3.0,50.0,39.1,15.0,76213.0,4.0,4.0,7.6,6.9,4.0,8.0,3.0,,,146599.0,,146599.0,,,6680.0,6680.0,,,,,,,
6330,1984,12.0,28.0,RUSSIA:  KAMCHATKA,56.2,163.4,7.0,,,2157.0,,7.0,True,,,,,,RUSSIA,50,10.0,37.0,53.7,33.0,,,,,6.2,,,,,,,,,,,,,,,,,,,
474,1277,7.0,20.0,ITALY:  VERONA,45.3,11.0,5.1,2.0,,,,,True,,,,,,ITALY,130,,,,,,2.0,,,,,,,,,,,,,,,,,,5.1,,,,
5551,2000,1.0,3.0,INDIA-BANGLADESH BORDER:  MAHESHKHALI,22.132,92.771,4.6,1.0,,,,,True,,,1.0,,,INDIA,60,22.0,34.0,12.6,33.0,,,,,4.6,,,,2.0,,,,,100.0,,,,,,,,,,
2519,1897,9.0,20.0,PHILIPPINES:  NW MINDANAO:  DAPITAN,6.0,122.0,8.6,1.0,,5455.0,,8.6,True,,,1.0,,,PHILIPPINES,170,19.0,6.0,,33.0,,,,,,,7.0,1.0,1.0,,,,,,,,,,,,,,,
3167,1920,12.0,17.0,ARGENTINA:  MENDOZA,-32.7,-68.4,6.0,3.0,3.0,,,6.0,True,400.0,3.0,3.0,,3.0,ARGENTINA,160,18.0,59.0,49.0,10.0,400.0,3.0,,,,,8.0,,,,,,,,,,,,,,,,,
5726,2003,9.0,29.0,RUSSIA:  KOSH-AGACH,50.0,87.89,4.4,1.0,,,,4.4,True,,,1.0,,,RUSSIA,40,15.0,27.0,1.0,10.0,,,,,5.1,,,,,,,,,,,,,,,,,,,
4317,1964,5.0,7.0,TANZANIA,-4.0,34.9,6.0,3.0,,,,,True,1.0,1.0,3.0,,,TANZANIA,10,5.0,45.0,0.0,33.0,1.0,1.0,1.0,,,1.0,,,,,19.0,,19.0,,,,,,,6.0,,,,
5819,2004,12.0,1.0,ALGERIA:  BOUMERDAS,36.848,3.448,4.5,1.0,,,,,True,,,1.0,,,ALGERIA,15,17.0,42.0,24.7,10.0,,,1.0,,4.5,1.0,,,,,15.0,,15.0,,,,,,,,,,,
5583,2000,11.0,17.0,PAPUA NEW GUINEA:  NEW BRITAIN,-5.496,151.781,7.8,,,,,8.0,True,,,,,,PAPUA NEW GUINEA,170,21.0,1.0,56.4,33.0,,,,7.8,6.2,,,,,,,,,,,,,,,,,,,
9848,2011,4.0,4.0,"NEPAL-INDIA:  UTTARAKHAND, UTTAR PRADESH",29.698,80.754,5.4,1.0,,,,5.1,True,,,1.0,,,NEPAL,60,11.0,31.0,43.0,26.0,,,,5.4,5.6,,,,,,,,,,,,,,,,,,,
2013,1857,12.0,16.0,"ITALY:  CAMPANIA, POTENZA",40.3,16.0,6.5,4.0,,,,,True,,,,,,ITALY,130,21.0,18.0,,,10000.0,4.0,,,,,10.0,,,,,,,,,,,,,6.5,,,,
10166,2015,11.0,24.0,PERU-BRAZIL,-10.77,-71.41,7.6,,,,,,True,,,,,,PERU,160,22.0,45.0,0.0,636.0,,,,7.6,,,4.0,,,,,,,,,,,,,,,,,
6543,1925,5.0,15.0,CHILE:  NORTHERN,-26.0,-71.5,7.1,,,1555.0,,7.1,True,,,,,,CHILE,160,11.0,56.0,57.0,50.0,,,,,,,,,,,,,,,,,,,,,,,,
5766,2004,3.0,1.0,GREECE:  SOUTHERN:  KALAMATA,37.136,22.116,5.2,1.0,,,,4.8,True,,,1.0,,,GREECE,130,0.0,35.0,58.0,9.0,,,,5.2,5.4,,,1.0,1.0,,,,,,5.1,,,,,,,,,
10355,2018,8.0,19.0,INDONESIA:  LOMBOK ISLAND,-8.319,116.627,6.9,2.0,,,,,True,11.0,1.0,2.0,,,INDONESIA,60,14.0,56.0,49.0,21.0,11.0,1.0,1.0,6.9,,1.0,,4.0,4.0,,,1800.0,,1800.0,,,,,,,,,,
10597,2022,1.0,7.0,"CHINA: QINGHAI, GANSU",37.815,101.278,6.6,4.0,,,,,True,,,4.0,,,CHINA,30,17.0,45.0,30.0,13.0,,,1.0,6.6,,1.0,9.0,4.0,4.0,,9.0,8830.0,9.0,8830.0,,510.0,510.0,,,,,,,
8209,2000,6.0,17.0,"ICELAND:  VESTMANNAEYJAR, HELLA",63.966,-20.487,6.5,3.0,1.0,,,6.6,True,,,3.0,11.0,1.0,ICELAND,120,15.0,40.0,41.7,10.0,,,1.0,6.5,5.7,1.0,,1.0,1.0,11.0,1.0,11.0,1.0,19.0,,20.0,20.0,,,,,,,
2954,1912,7.0,24.0,"PERU:  HUANCABAMBA,CAJAMARCA; ECUADOR:  GUAYAQUIL",-5.62,-80.413,7.0,3.0,3.0,,,7.0,True,,3.0,3.0,,3.0,PERU,160,11.0,50.0,0.0,30.0,,3.0,3.0,,,3.0,10.0,,,,,,,,,,,,,,,,,
2773,1906,7.0,14.0,COLOMBIA,4.6,-74.0,7.7,,,,,7.7,True,,,,,,COLOMBIA,160,10.0,27.0,0.0,,,,,,,,9.0,,,,,,,,,,,,,,,,,
5302,1991,8.0,9.0,COSTA RICA:  CARTAGO,9.737,-84.054,4.7,1.0,,,,4.7,True,,,1.0,,,COSTA RICA,100,9.0,33.0,49.6,5.0,,,,,4.7,,,1.0,1.0,,,30.0,,30.0,,,,,,,,,,
4911,1981,1.0,23.0,CHINA:  SICHUAN PROVINCE,30.927,101.098,6.8,2.0,4.0,,,6.8,True,150.0,3.0,2.0,2992.0,4.0,CHINA,30,21.0,13.0,51.7,33.0,150.0,3.0,3.0,,5.7,3.0,8.0,,,2992.0,489.0,,489.0,,,5.0,5.0,,,,,,,
4531,1970,5.0,31.0,"PERU: NORTHERN, PISCO, CHICLAYO",-9.2,-78.8,7.9,4.0,3.0,2021.0,,7.8,True,66794.0,4.0,4.0,,3.0,PERU,160,20.0,23.0,27.3,43.0,66794.0,4.0,4.0,7.9,,4.0,10.0,3.0,,,50000.0,,50000.0,,,530.0,530.0,,,,,,,
5840,2005,1.0,24.0,"ECUADOR:  NEAR WEST COAST:  PUERTO LOPEZ, SALANGO",-1.364,-80.785,6.1,2.0,2.0,,,5.7,True,,,2.0,,2.0,ECUADOR,160,23.0,23.0,26.1,17.0,,,,6.1,5.5,,,,,,,,,,,,,,,,,,,
276,942,6.0,,UZBEKISTAN:  BUKHARA,39.7,64.5,6.7,3.0,,,,,True,,,,,,UZBEKISTAN,40,,,0.0,20.0,,,,,,,9.0,,,,,,,,,,,,,6.7,,,,
4839,1979,7.0,9.0,CHINA:  JIANGSU PROVINCE:  LIYANG,31.452,119.241,5.4,4.0,4.0,,,5.4,True,41.0,1.0,4.0,113909.0,4.0,CHINA,30,10.0,57.0,22.1,11.0,42.0,1.0,4.0,,5.5,4.0,8.0,,,113909.0,2987.0,,2987.0,,,,,,,,,,,
7881,2008,5.0,25.0,CHINA:  SICHUAN PROVINCE,32.57,105.424,6.0,4.0,4.0,,,6.0,True,8.0,1.0,4.0,400000.0,4.0,CHINA,30,8.0,21.0,48.7,10.0,8.0,1.0,3.0,6.0,5.8,3.0,,4.0,,400000.0,927.0,400000.0,927.0,,,,,,,,,,,
6766,2005,8.0,5.0,CHINA:  YUNNAN PROVINCE:  HUIZE,26.569,103.036,4.8,2.0,4.0,,,4.8,True,,,2.0,3700.0,4.0,CHINA,30,14.0,14.0,48.0,42.0,,,1.0,,5.2,1.0,,4.0,,3700.0,9.0,3700.0,9.0,,,,,,,,,,,
863,1613,7.0,16.0,SOUTH KOREA:  SUWON,37.2,127.0,6.3,2.0,,,,,True,,,,,,SOUTH KOREA,30,,,0.0,,,,,,,,8.0,,,,,,,,,,,,,6.3,,,,
8132,2008,8.0,30.0,CHINA:  SICHUAN PROVINCE,26.272,101.937,5.9,4.0,4.0,,,5.8,True,43.0,1.0,4.0,392000.0,4.0,CHINA,30,8.0,30.0,54.0,17.0,43.0,1.0,3.0,5.9,5.7,3.0,,4.0,,392000.0,589.0,392000.0,589.0,,,,,,,,,,,
5416,1995,7.0,30.0,"CHILE:  ANTOFAGASTA, CALAMA, MEJILLONES",-23.34,-70.294,8.0,2.0,3.0,2249.0,,7.3,True,3.0,1.0,2.0,115.0,3.0,CHILE,160,5.0,11.0,23.6,46.0,3.0,1.0,2.0,8.0,6.6,,7.0,,,115.0,58.0,,,,,1.66,1.791,,,,,,,
3751,1943,7.0,29.0,PUERTO RICO:  SAN JUAN,19.3,-67.5,7.8,,,,,,True,,,,,,USA TERRITORY,90,3.0,2.0,0.0,,,,,,,,,,,,,,,,,,,PR,,7.8,,,,
92,362,5.0,24.0,JORDAN:  AL-KARAK,31.3,35.6,6.4,3.0,,37.0,,6.4,True,,,3.0,,,JORDAN,140,,,,,,,,,,,,,,,,,,,,,,,,,,,,
750,1564,7.0,20.0,"FRANCE:  CORSICA,LA BOLLENE-VESUBIE,VENANSON",44.017,7.283,5.8,4.0,,3122.0,,5.8,True,650.0,3.0,4.0,,,FRANCE,120,,,,,650.0,3.0,,,,,9.0,,,,,,,,,,,,,,,,,
972,1647,6.0,16.0,JAPAN,36.0,140.0,6.4,,,,,,True,,,,,,JAPAN,30,,,0.0,,,2.0,,,,,,,,,,,,,,,,,,6.4,,,,
1797,1837,9.0,10.0,CHINA:  GANSU PROVINCE,34.6,103.7,6.0,2.0,3.0,,,6.0,True,37.0,1.0,2.0,941.0,3.0,CHINA,30,,,,,37.0,1.0,,,,,8.0,,,941.0,,,,,,,,,,,,,,
3053,1916,4.0,18.0,ALASKA:  ALEUTIAN ISLANDS:  FOX ISLANDS,53.3,-170.0,7.5,,,,,,True,,,,,,USA,150,4.0,1.0,0.0,170.0,,,,,,,,,,,,,,,,,,AK,,7.5,,,,
8251,2009,2.0,11.0,INDONESIA:  KEPULAUAN TALAUD,3.884,126.397,7.2,2.0,,3692.0,,7.2,True,,,2.0,,,INDONESIA,170,17.0,34.0,50.8,22.0,,,2.0,7.2,6.6,2.0,,3.0,3.0,,64.0,597.0,64.0,597.0,,,,,,,,,,
6082,1929,5.0,21.0,JAPAN:  HIUGANADA,31.7,132.2,6.8,,,1614.0,,,True,,,,,,JAPAN,30,16.0,35.0,,30.0,,,,,,,,,,,,,,,,,,,,6.8,,,,
4638,1973,6.0,17.0,JAPAN:  HOKKAIDO ISLAND,43.2,145.8,7.7,2.0,1.0,2060.0,,7.7,True,27.0,1.0,2.0,2.0,1.0,JAPAN,30,3.0,55.0,2.9,48.0,,,1.0,,6.5,,8.0,,,2.0,27.0,,,,,5.0,5.0,,,7.7,,,,
2331,1883,10.0,15.0,"TURKEY:  AYVALIK, IZMIR, CESME",38.3,26.2,7.3,4.0,4.0,,,7.3,True,15000.0,4.0,4.0,3600.0,4.0,TURKEY,140,13.0,30.0,,,15000.0,4.0,,,,,10.0,,,3600.0,,,,,,,,,,,,,,
2690,1904,8.0,27.0,ALASKA:  RAMPART,64.66,-148.08,8.3,,,,,8.3,True,,,,,,USA,150,21.0,56.0,,,,,,,7.8,,6.0,,,,,,,,,,,AK,,,,,,
3366,1928,4.0,22.0,GREECE:  CORINTH (CORINTHIA),38.0,23.0,6.0,4.0,4.0,1597.0,,6.0,True,20.0,1.0,4.0,3000.0,4.0,GREECE,130,20.0,13.0,46.0,29.0,20.0,1.0,,,,,9.0,,,3000.0,,,,,,,,,,,,,,
4752,1976,11.0,24.0,TURKEY:  MURADIYE,39.058,44.03,7.0,4.0,,,,7.3,True,5000.0,4.0,4.0,,,TURKEY,140,12.0,22.0,17.6,36.0,5000.0,4.0,3.0,7.0,6.1,3.0,10.0,,,,,,,,,60.0,60.0,,,7.3,,,,
2739,1905,11.0,8.0,GREECE:  AEGEAN SEA,40.092,24.627,7.2,2.0,,5744.0,,7.8,True,11.0,1.0,2.0,,,GREECE,130,22.0,6.0,11.8,15.0,,,,7.2,,,10.0,,,,,,,,,,,,,,,,,
494,1293,5.0,27.0,JAPAN:  KAMAKURA,35.2,139.4,7.1,3.0,,110.0,,7.1,True,23024.0,4.0,3.0,,,JAPAN,30,,,,,23024.0,4.0,,,,,,,,,,,,,,,,,,,,,,
1754,1833,1.0,19.0,"ALBANIA:  VLORE, SAZAN, KANINA, NARTA",40.4,19.9,6.4,2.0,,678.0,,6.4,True,,,2.0,,,ALBANIA,130,,,,,,,,,,,10.0,,,,,,,,,,,,,,,,,
6578,1914,2.0,26.0,PERU:  AREQUIPA,-17.0,-72.0,7.2,,,1413.0,,7.2,True,,,,,,PERU,160,4.0,58.0,12.0,130.0,,,,,,,,,,,,,,,,,,,,,,,,
1669,1822,11.0,20.0,"CHILE:  VALPARAISO, QUILLOTA, CONCON,  ACONCAGUA",-33.0,-72.0,8.5,4.0,3.0,641.0,,8.5,True,72.0,3.0,4.0,,3.0,CHILE,160,2.0,30.0,,,72.0,3.0,3.0,,,3.0,11.0,3.0,3.0,,200.0,,200.0,,,,,,,,,,,
9990,1916,7.0,3.0,ITALY:  STROMBOLI ISLAND,38.817,15.233,5.1,1.0,,3147.0,,5.1,True,,,1.0,,,ITALY,130,23.0,21.0,41.0,,,,,,,,7.0,1.0,1.0,,,,,,,,,,,,,,,
5628,2002,4.0,1.0,"CHILE:  CENTRAL:  COQUIMBO, LA SERENA, OVALLE",-29.67,-71.384,6.4,1.0,,,,,True,,,1.0,,,CHILE,160,19.0,59.0,32.4,71.0,,,,6.4,6.1,,,,,,,,,,,,,,,,,,,
6129,1858,4.0,24.0,CHILE:  LA SERENA,-30.0,-71.4,6.5,,,875.0,,6.5,True,,1.0,,,,CHILE,160,11.0,15.0,,,,1.0,,,,,8.0,,,,,,,,,,,,,,,,,
5421,1995,10.0,6.0,ALASKA:  FAIRBANKS NORTH STAR COUNTY,65.17,-148.565,6.0,1.0,,,,5.8,True,,,1.0,,,USA,150,5.0,23.0,18.5,9.0,,,,6.0,5.7,,,,,,,,,,,,,AK,,,,,,
6317,1925,11.0,16.0,S. MEXICO,18.5,-107.0,7.0,,,1560.0,,7.0,True,,,2.0,,,MEXICO,150,11.0,54.0,54.0,80.0,,,,,,,,,,,,,,,,,,,,,,,,
4466,1968,10.0,7.0,JAPAN:  BONIN ISLANDS,26.3,140.6,7.5,,,,,7.5,True,,,,,,JAPAN,30,19.0,20.0,20.3,516.0,,,,,6.8,,,,,,,,,,,,,,,,,,,
2573,1900,6.0,21.0,COSTA RICA,10.0,-85.5,7.5,,,,,7.5,True,,,,,,COSTA RICA,100,20.0,52.0,,60.0,,,,,,,,,,,,,,,,,,,,,,,,
2997,1914,1.0,30.0,CHILE:  OFF CENTRAL COAST,-35.0,-73.0,7.6,,,,,7.6,True,,,,,,CHILE,160,3.0,35.0,50.0,33.0,,,,,,,,,,,,,,,,,,,,,,,,
3041,1915,11.0,1.0,JAPAN:  NEAR E COAST HONSHU,38.3,142.9,7.8,1.0,,1429.0,,7.8,True,,,1.0,,,JAPAN,30,7.0,23.0,43.0,60.0,,,,,,,,,,,,,,,,,,,,,,,,
7674,2007,11.0,25.0,INDONESIA:  SUMBAWA ISLAND,-8.277,118.339,6.5,2.0,3.0,,,,True,3.0,1.0,2.0,,3.0,INDONESIA,60,16.0,2.0,17.9,35.0,3.0,1.0,3.0,6.5,6.2,3.0,,,,,,,,,6.3,,,,,,,,,
2871,1909,6.0,8.0,CHILE,-26.5,-70.5,7.6,,,1379.0,,7.6,True,,,,,,CHILE,160,5.0,46.0,30.0,,,,,,,,,,,,,,,,,,,,,,,,,
7971,2008,7.0,19.0,JAPAN:  OFF EAST COAST OF HONSHU ISLAND,37.552,142.214,6.9,,,3558.0,,7.0,True,,,,,,JAPAN,30,2.0,39.0,28.7,22.0,,,,6.9,6.2,,,,,,,,,,,,,,,,,,,
1274,1739,1.0,3.0,CHINA:  NINGXIA,38.9,106.5,8.0,4.0,4.0,,,8.0,True,50000.0,4.0,4.0,,4.0,CHINA,30,,,,,50000.0,4.0,,,,,10.0,,,,,,,,,,,,,,,,,
6045,1834,3.0,14.0,MEXICO:  ACAPULCO,16.8,-99.9,7.0,,,685.0,,7.0,True,,,1.0,,2.0,MEXICO,150,,,,,,,,,,,,,,,,,,,,,,,,,,,,
4853,1979,11.0,6.0,GREECE-ALBANIA,39.536,20.398,5.2,3.0,,,,5.2,True,1.0,1.0,3.0,,,GREECE,130,5.0,26.0,17.7,40.0,1.0,1.0,1.0,,5.4,1.0,8.0,,,,3.0,,3.0,,,,,,,,,,,
3187,1922,1.0,17.0,PERU,-2.5,-71.0,7.6,,,,,7.6,True,,,,,,PERU,160,3.0,50.0,33.0,650.0,,,,,,,,,,,,,,,,,,,,,,,,
3542,1935,3.0,5.0,IRAN:  ALBORZ,35.982,52.953,6.0,2.0,,,,5.8,True,60.0,2.0,2.0,,,IRAN,140,10.0,26.0,39.5,15.0,60.0,2.0,,6.0,,,7.0,,,,,,,,,,,,,6.0,,,,
814,1600,2.0,19.0,PERU:  VOLCAN HUAYNAPUTINA,-16.8,-70.9,7.9,,,,4052.0,,True,1500.0,4.0,,,,PERU,160,10.0,,,20.0,,,,,,,11.0,,,,,,,,,,,,,7.9,,,,
4116,1957,3.0,9.0,ALASKA,51.292,-175.629,8.6,1.0,,1867.0,3117.0,9.1,True,2.0,1.0,3.0,,,USA,150,14.0,22.0,31.9,33.0,,,,8.6,,1.0,,,,,,,1.0,,,,,AK,,,,,,
4876,1980,5.0,18.0,WASHINGTON:  MT ST HELENS,46.214,-122.194,5.2,,,3018.0,3314.0,5.2,True,61.0,2.0,4.0,,,USA,150,15.0,32.0,11.4,4.0,,,,,4.7,,5.0,,,,,,,,5.0,,2000.0,WA,,,,,,
4990,1983,10.0,3.0,"JAPAN:  MIYAKEJIMA, OSHIMA",33.941,139.513,6.0,2.0,,,2585.0,6.0,True,,,2.0,,,JAPAN,30,13.0,33.0,35.0,12.0,,,,,5.8,,8.0,,,,,,,,,,,,,,,,,
5387,1994,6.0,6.0,"COLOMBIA:  CAUCA, HUILA",2.917,-76.057,6.8,2.0,3.0,,6624.0,6.6,True,650.0,3.0,2.0,200.0,3.0,COLOMBIA,160,20.0,47.0,40.5,12.0,650.0,3.0,,6.8,6.4,,,,,200.0,,,,,,2.4,2.4,,,,,,,
6125,1857,4.0,17.0,PAPUA NEW GUINEA:  BISMARCK SEA,-5.5,147.0,8.0,1.0,,869.0,4906.0,8.0,True,,2.0,2.0,,2.0,PAPUA NEW GUINEA,170,,,,,,,,,,,,,,,,,,,,,,,,,,,,
9172,2010,5.0,29.0,"ANATAHAN REGION, N. MARIANA ISLANDS",16.591,145.682,4.4,,,4822.0,5184.0,,True,,,,,,USA TERRITORY,170,11.0,46.0,50.3,10.0,,,,,4.4,,,,,,,,,,,,,MP,,,,,,
9532,1770,,,INDONESIA:  SUMATRA:,-5.0,102.0,7.0,3.0,3.0,500.0,7542.0,7.0,True,,,3.0,,3.0,INDONESIA,60,,,,,,,,,,,,,,,,,,,,,,,,,,,,
10435,1923,2.0,15.0,VIETNAM: THUAN HAI PROVINCE,10.1,109.0,6.1,,,5720.0,7444.0,,True,,,1.0,,,VIETNAM,30,,,,17.0,,,,,,,,,,,,,,,,,,,,6.1,,,,
5559,2000,5.0,17.0,TAIWAN:  TAI-CHUNG COUNTY,24.223,121.058,5.4,1.0,,,,5.3,True,3.0,1.0,1.0,,,TAIWAN,30,3.0,25.0,48.7,10.0,3.0,1.0,1.0,5.4,5.4,1.0,,,,,13.0,,13.0,,,,,,,,,,,
8693,2010,1.0,2.0,TAJIKISTAN,38.245,71.467,5.1,2.0,2.0,,,5.1,True,,,2.0,98.0,2.0,TAJIKISTAN,40,2.0,15.0,12.0,47.0,,,,,5.4,,,3.0,3.0,98.0,,1000.0,,1000.0,,1.5,1.5,,,,,,,
2548,1899,1.0,24.0,MEXICO:  GUERRERO-OAXACA,17.0,-98.0,8.4,3.0,,,,,True,,,,,,MEXICO,150,23.0,43.0,0.0,60.0,,,,,,,,,,,,,,,,,,,,8.4,,,,
7986,1861,7.0,19.0,CHINA:  LIAONING PROVINCE,39.1,121.7,6.0,2.0,3.0,,,6.0,True,2.0,1.0,2.0,780.0,3.0,CHINA,30,,,,,2.0,1.0,1.0,,,1.0,8.0,,,780.0,8.0,,8.0,,,,,,,,,,,
3628,1938,11.0,6.0,JAPAN:  OFF EAST COAST HONSHU,37.5,142.2,7.5,,,1718.0,,7.5,True,,,,,,JAPAN,30,8.0,53.0,53.0,0.0,,,,,,,,,,,,,,,,,,,,,,,,
9824,2011,6.0,24.0,ALASKA: ALEUTIAN ISLANDS: FOX ISLANDS,52.05,-171.836,7.3,,,5432.0,,,True,,,,,,USA,150,3.0,9.0,39.4,52.0,,,,7.3,6.9,,,,,,,,,,6.7,,,AK,,,,,,
3949,1950,8.0,5.0,ECUADOR,-1.5,-78.2,6.8,,,,,,True,,,,,,ECUADOR,160,19.0,8.0,0.0,60.0,,,,,,,11.0,,,,,,,,,,,,,6.8,,,,
5651,2002,9.0,20.0,INDONESIA:  NEW GUINEA:  IRIAN JAYA:  RANSIKI,-1.68,134.234,6.4,1.0,,,,6.4,True,,,1.0,,,INDONESIA,170,15.0,43.0,35.4,10.0,,,,6.4,5.9,,,1.0,1.0,,,31.0,,31.0,,,,,,,,,,
5931,1791,9.0,13.0,JAPAN:  OSAKA BAY,34.5,135.4,6.5,1.0,,558.0,,6.5,True,,2.0,1.0,,,JAPAN,30,,,,,,2.0,,,,,,,,,,,,,,,,,,,,,,
9877,2012,3.0,16.0,PHILIPPINES:  SURIGAO,10.037,125.633,5.8,1.0,1.0,,,5.3,True,,,1.0,4.0,1.0,PHILIPPINES,170,7.0,58.0,2.5,18.0,,,2.0,5.8,5.8,2.0,,1.0,1.0,4.0,55.0,,55.0,,,,,,,,,,,
753,1568,4.0,25.0,"CHINA:  HEBEI PROVINCE:  QIANAN, LAOTING",39.0,119.0,6.0,3.0,,,,6.0,True,,,3.0,,,CHINA,30,,,,,,,,,,,,,,,,,,,,,,,,,,,,
3466,1931,4.0,27.0,"ARMENIA:  ZANGEZUR, NAKHITCHEVAN",39.2,46.0,6.3,4.0,,,,6.3,True,,,,,,ARMENIA,40,16.0,50.0,0.0,22.0,2890.0,4.0,,,,,8.0,,,,,,,,,,,,,,,,,
8071,1964,2.0,13.0,CHINA:   YUNNAN PROVINCE,26.1,101.0,5.4,1.0,,,,5.4,True,,,1.0,,,CHINA,30,10.0,3.0,53.0,15.0,,,,,,,7.0,,,,,,,,,,,,,,,,,
